{
  "saved": "2021-04-03T12:41:26",
  "ciudades": [
    {
      "latitude": 40.54845854,
      "elevation": 1372.0,
      "location": "Ababuj",
      "longitude": -0.80780117,
      "code": "44001"
    },
    {
      "latitude": 40.91634014,
      "elevation": 971.0,
      "location": "Abades",
      "longitude": -4.26787389,
      "code": "40001"
    },
    {
      "latitude": 43.14764599,
      "elevation": 144.0,
      "location": "Abadi\u00f1o",
      "longitude": -2.60687319,
      "code": "48001"
    },
    {
      "latitude": 40.25953202,
      "elevation": 451.0,
      "location": "Abad\u00eda",
      "longitude": -5.97785806,
      "code": "10001"
    },
    {
      "latitude": 43.36302076,
      "elevation": 515.0,
      "location": "Abad\u00edn",
      "longitude": -7.47214495,
      "code": "27001"
    },
    {
      "latitude": 42.62324935,
      "elevation": 839.0,
      "location": "Abajas",
      "longitude": -3.58176303,
      "code": "09001"
    },
    {
      "latitude": 43.04671843,
      "elevation": 374.0,
      "location": "Abaltzisketa",
      "longitude": -2.1056243,
      "code": "20001"
    },
    {
      "latitude": 38.20788917,
      "elevation": 222.0,
      "location": "Abanilla",
      "longitude": -1.04259775,
      "code": "30001"
    },
    {
      "latitude": 41.13823568,
      "elevation": 929.0,
      "location": "Abanto",
      "longitude": -1.69921759,
      "code": "50001"
    },
    {
      "latitude": 43.31082699,
      "elevation": 100.0,
      "location": "Abanto y Ci\u00e9rvana-Abanto Zierbena",
      "longitude": -3.07319265,
      "code": "48002"
    },
    {
      "latitude": 42.06341982,
      "elevation": 758.0,
      "location": "Abarca de Campos",
      "longitude": -4.84050594,
      "code": "34001"
    },
    {
      "latitude": 38.20259944,
      "elevation": 173.0,
      "location": "Abar\u00e1n",
      "longitude": -1.40118044,
      "code": "30002"
    },
    {
      "latitude": 42.90411944,
      "elevation": 1056.0,
      "location": "Abaurregaina/Abaurrea Alta",
      "longitude": -1.20924899,
      "code": "31003"
    },
    {
      "latitude": 42.91190255,
      "elevation": 869.0,
      "location": "Abaurrepea/Abaurrea Baja",
      "longitude": -1.21577352,
      "code": "31004"
    },
    {
      "latitude": 43.22787288,
      "elevation": 142.0,
      "location": "Abegondo",
      "longitude": -8.28854794,
      "code": "15001"
    },
    {
      "latitude": 41.8079279,
      "elevation": 1140.0,
      "location": "Abejar",
      "longitude": -2.78291427,
      "code": "42001"
    },
    {
      "latitude": 39.90992613,
      "elevation": 1168.0,
      "location": "Abejuela",
      "longitude": -0.89343176,
      "code": "44002"
    },
    {
      "latitude": 42.16142117,
      "elevation": 954.0,
      "location": "Abella de la Conca",
      "longitude": 1.09177173,
      "code": "25001"
    },
    {
      "latitude": 39.2100078,
      "elevation": 634.0,
      "location": "Abengibre",
      "longitude": -1.54384487,
      "code": "02001"
    },
    {
      "latitude": 38.87961452,
      "elevation": 612.0,
      "location": "Aben\u00f3jar",
      "longitude": -4.35762706,
      "code": "13001"
    },
    {
      "latitude": 42.61951216,
      "elevation": 516.0,
      "location": "Aberin",
      "longitude": -2.00860462,
      "code": "31005"
    },
    {
      "latitude": 39.24314262,
      "elevation": 396.0,
      "location": "Abertura",
      "longitude": -5.81393908,
      "code": "10002"
    },
    {
      "latitude": 41.62553743,
      "elevation": 733.0,
      "location": "Abezames",
      "longitude": -5.4255557,
      "code": "49002"
    },
    {
      "latitude": 40.01915175,
      "elevation": 1022.0,
      "location": "Abia de la Obispal\u00eda",
      "longitude": -2.39574988,
      "code": "16001"
    },
    {
      "latitude": 42.41894333,
      "elevation": 842.0,
      "location": "Abia de las Torres",
      "longitude": -4.42286282,
      "code": "34003"
    },
    {
      "latitude": 42.1213634,
      "elevation": 536.0,
      "location": "Abiego",
      "longitude": -0.07070538,
      "code": "22001"
    },
    {
      "latitude": 42.2428504,
      "elevation": 638.0,
      "location": "Abizanda",
      "longitude": 0.19783256,
      "code": "22002"
    },
    {
      "latitude": 37.1412099,
      "elevation": 853.0,
      "location": "Abla",
      "longitude": -2.77953953,
      "code": "04001"
    },
    {
      "latitude": 40.89821141,
      "elevation": 1061.0,
      "location": "Ablanque",
      "longitude": -2.22937043,
      "code": "19002"
    },
    {
      "latitude": 41.97369427,
      "elevation": 386.0,
      "location": "Ablitas",
      "longitude": -1.6384487,
      "code": "31006"
    },
    {
      "latitude": 41.51794352,
      "elevation": 106.0,
      "location": "Abrera",
      "longitude": 1.90221018,
      "code": "08001"
    },
    {
      "latitude": 37.13218285,
      "elevation": 986.0,
      "location": "Abrucena",
      "longitude": -2.7974669,
      "code": "04002"
    },
    {
      "latitude": 40.70974359,
      "elevation": 839.0,
      "location": "Abusejo",
      "longitude": -6.14229505,
      "code": "37001"
    },
    {
      "latitude": 42.64758434,
      "elevation": 486.0,
      "location": "Ab\u00e1igar",
      "longitude": -2.14259213,
      "code": "31001"
    },
    {
      "latitude": 40.89268689,
      "elevation": 1039.0,
      "location": "Ab\u00e1nades",
      "longitude": -2.48589722,
      "code": "19001"
    },
    {
      "latitude": 42.72744993,
      "elevation": 560.0,
      "location": "Ab\u00e1rzuza/Abartzuza",
      "longitude": -2.02195793,
      "code": "31002"
    },
    {
      "latitude": 41.08669701,
      "elevation": 1271.0,
      "location": "Acebeda, La",
      "longitude": -3.62520402,
      "code": "28001"
    },
    {
      "latitude": 43.03940488,
      "elevation": 1153.0,
      "location": "Acebedo",
      "longitude": -5.11654364,
      "code": "24001"
    },
    {
      "latitude": 40.20164733,
      "elevation": 509.0,
      "location": "Acebo",
      "longitude": -6.71717386,
      "code": "10003"
    },
    {
      "latitude": 39.90870905,
      "elevation": 759.0,
      "location": "Acebr\u00f3n, El",
      "longitude": -2.98521139,
      "code": "16002"
    },
    {
      "latitude": 39.07492505,
      "elevation": 316.0,
      "location": "Acedera",
      "longitude": -5.57151763,
      "code": "06001"
    },
    {
      "latitude": 39.80103034,
      "elevation": 340.0,
      "location": "Aceh\u00fache",
      "longitude": -6.63471528,
      "code": "10004"
    },
    {
      "latitude": 40.14919147,
      "elevation": 477.0,
      "location": "Aceituna",
      "longitude": -6.33134449,
      "code": "10005"
    },
    {
      "latitude": 41.17047963,
      "elevation": 835.0,
      "location": "Acered",
      "longitude": -1.60429853,
      "code": "50002"
    },
    {
      "latitude": 38.64700914,
      "elevation": 303.0,
      "location": "Aceuchal",
      "longitude": -6.48701436,
      "code": "06002"
    },
    {
      "latitude": 42.14589803,
      "elevation": 616.0,
      "location": "Adahuesca",
      "longitude": -0.00778658,
      "code": "22003"
    },
    {
      "latitude": 41.65025211,
      "elevation": 783.0,
      "location": "Adalia",
      "longitude": -5.12051384,
      "code": "47001"
    },
    {
      "latitude": 38.02512572,
      "elevation": 241.0,
      "location": "Adamuz",
      "longitude": -4.52617749,
      "code": "14001"
    },
    {
      "latitude": 40.94423557,
      "elevation": 910.0,
      "location": "Adanero",
      "longitude": -4.60377542,
      "code": "05001"
    },
    {
      "latitude": 28.12049369,
      "elevation": 218.0,
      "location": "Adeje",
      "longitude": -16.72245684,
      "code": "38001"
    },
    {
      "latitude": 40.06120013,
      "elevation": 756.0,
      "location": "Ademuz",
      "longitude": -1.28669047,
      "code": "46001"
    },
    {
      "latitude": 42.68647787,
      "elevation": 478.0,
      "location": "Adi\u00f3s",
      "longitude": -1.73632112,
      "code": "31007"
    },
    {
      "latitude": 40.67676457,
      "elevation": 1380.0,
      "location": "Adobes",
      "longitude": -1.67947053,
      "code": "19003"
    },
    {
      "latitude": 38.91881333,
      "elevation": 100.0,
      "location": "Ador",
      "longitude": -0.22439286,
      "code": "46002"
    },
    {
      "latitude": 36.74868325,
      "elevation": 14.0,
      "location": "Adra",
      "longitude": -3.02330257,
      "code": "04003"
    },
    {
      "latitude": 41.59422333,
      "elevation": 822.0,
      "location": "Adrada de Haza",
      "longitude": -3.82309492,
      "code": "09003"
    },
    {
      "latitude": 41.05158774,
      "elevation": 1020.0,
      "location": "Adrada de Pir\u00f3n",
      "longitude": -4.04989926,
      "code": "40002"
    },
    {
      "latitude": 40.30136381,
      "elevation": 624.0,
      "location": "Adrada, La",
      "longitude": -4.63746033,
      "code": "05002"
    },
    {
      "latitude": 41.35106664,
      "elevation": 1051.0,
      "location": "Adradas",
      "longitude": -2.47377986,
      "code": "42003"
    },
    {
      "latitude": 41.3685948,
      "elevation": 878.0,
      "location": "Adrados",
      "longitude": -4.11562511,
      "code": "40003"
    },
    {
      "latitude": 43.20340038,
      "elevation": 129.0,
      "location": "Aduna",
      "longitude": -2.04978935,
      "code": "20002"
    },
    {
      "latitude": 28.09862641,
      "elevation": 45.0,
      "location": "Agaete",
      "longitude": -15.69904438,
      "code": "35001"
    },
    {
      "latitude": 40.448251,
      "elevation": 803.0,
      "location": "Agallas",
      "longitude": -6.4408691,
      "code": "37002"
    },
    {
      "latitude": 42.76310619,
      "elevation": 581.0,
      "location": "Agolada",
      "longitude": -8.01769613,
      "code": "36020"
    },
    {
      "latitude": 42.44592226,
      "elevation": 346.0,
      "location": "Agoncillo",
      "longitude": -2.2916499,
      "code": "26002"
    },
    {
      "latitude": 38.43949316,
      "elevation": 331.0,
      "location": "Agost",
      "longitude": -0.63891979,
      "code": "03002"
    },
    {
      "latitude": 41.78736558,
      "elevation": 336.0,
      "location": "Agramunt",
      "longitude": 1.09922357,
      "code": "25003"
    },
    {
      "latitude": 38.78000404,
      "elevation": 719.0,
      "location": "Agres",
      "longitude": -0.51595543,
      "code": "03003"
    },
    {
      "latitude": 37.03037591,
      "elevation": 1059.0,
      "location": "Agr\u00f3n",
      "longitude": -3.83009744,
      "code": "18001"
    },
    {
      "latitude": 37.25197969,
      "elevation": 264.0,
      "location": "Aguadulce",
      "longitude": -4.99341911,
      "code": "41001"
    },
    {
      "latitude": 41.33848892,
      "elevation": 650.0,
      "location": "Aguar\u00f3n",
      "longitude": -1.26960814,
      "code": "50004"
    },
    {
      "latitude": 42.71727408,
      "elevation": 744.0,
      "location": "Aguas C\u00e1ndidas",
      "longitude": -3.50447563,
      "code": "09006"
    },
    {
      "latitude": 41.27453068,
      "elevation": 753.0,
      "location": "Aguasal",
      "longitude": -4.65253556,
      "code": "47002"
    },
    {
      "latitude": 40.67128085,
      "elevation": 1224.0,
      "location": "Aguat\u00f3n",
      "longitude": -1.23376877,
      "code": "44003"
    },
    {
      "latitude": 40.82246644,
      "elevation": 549.0,
      "location": "Aguaviva",
      "longitude": -0.19721142,
      "code": "44004"
    },
    {
      "latitude": 38.97881558,
      "elevation": 569.0,
      "location": "Agudo",
      "longitude": -4.87264671,
      "code": "13002"
    },
    {
      "latitude": 41.22794795,
      "elevation": 887.0,
      "location": "Aguilafuente",
      "longitude": -4.11194224,
      "code": "40004"
    },
    {
      "latitude": 42.59013202,
      "elevation": 683.0,
      "location": "Aguilar de Bureba",
      "longitude": -3.32851643,
      "code": "09007"
    },
    {
      "latitude": 42.79264578,
      "elevation": 897.0,
      "location": "Aguilar de Campoo",
      "longitude": -4.25993817,
      "code": "34004"
    },
    {
      "latitude": 41.98485705,
      "elevation": 775.0,
      "location": "Aguilar de Campos",
      "longitude": -5.17938513,
      "code": "47003"
    },
    {
      "latitude": 42.61337016,
      "elevation": 728.0,
      "location": "Aguilar de Cod\u00e9s",
      "longitude": -2.38922737,
      "code": "31008"
    },
    {
      "latitude": 41.74831278,
      "elevation": 533.0,
      "location": "Aguilar de Segarra",
      "longitude": 1.62936702,
      "code": "08002"
    },
    {
      "latitude": 37.52004219,
      "elevation": 379.0,
      "location": "Aguilar de la Frontera",
      "longitude": -4.66061547,
      "code": "14002"
    },
    {
      "latitude": 40.59024818,
      "elevation": 1304.0,
      "location": "Aguilar del Alfambra",
      "longitude": -0.79655771,
      "code": "44005"
    },
    {
      "latitude": 41.96170118,
      "elevation": 638.0,
      "location": "Aguilar del R\u00edo Alhama",
      "longitude": -1.9941216,
      "code": "26003"
    },
    {
      "latitude": 41.29652143,
      "elevation": 686.0,
      "location": "Aguil\u00f3n",
      "longitude": -1.0455632,
      "code": "50005"
    },
    {
      "latitude": 42.39402494,
      "elevation": 162.0,
      "location": "Agullana",
      "longitude": 2.84657328,
      "code": "17001"
    },
    {
      "latitude": 38.82229442,
      "elevation": 411.0,
      "location": "Agullent",
      "longitude": -0.54782899,
      "code": "46004"
    },
    {
      "latitude": 28.18761937,
      "elevation": 153.0,
      "location": "Agulo",
      "longitude": -17.19184774,
      "code": "38002"
    },
    {
      "latitude": 41.85576815,
      "elevation": 322.0,
      "location": "Ag\u00f3n",
      "longitude": -1.45183776,
      "code": "50003"
    },
    {
      "latitude": 42.35494981,
      "elevation": 695.0,
      "location": "Ag\u00fcero",
      "longitude": -0.7944182,
      "code": "22004"
    },
    {
      "latitude": 27.90513756,
      "elevation": 279.0,
      "location": "Ag\u00fcimes",
      "longitude": -15.44475728,
      "code": "35002"
    },
    {
      "latitude": 40.1871082,
      "elevation": 377.0,
      "location": "Ahigal",
      "longitude": -6.18738129,
      "code": "10006"
    },
    {
      "latitude": 41.15796469,
      "elevation": 764.0,
      "location": "Ahigal de Villarino",
      "longitude": -6.37930035,
      "code": "37004"
    },
    {
      "latitude": 40.87229512,
      "elevation": 632.0,
      "location": "Ahigal de los Aceiteros",
      "longitude": -6.74689866,
      "code": "37003"
    },
    {
      "latitude": 38.26032661,
      "elevation": 580.0,
      "location": "Ahillones",
      "longitude": -5.86674807,
      "code": "06003"
    },
    {
      "latitude": 43.23615037,
      "elevation": 311.0,
      "location": "Aia",
      "longitude": -2.14903622,
      "code": "20016"
    },
    {
      "latitude": 42.59224246,
      "elevation": 560.0,
      "location": "Aibar/Oibar",
      "longitude": -1.3597423,
      "code": "31009"
    },
    {
      "latitude": 38.87774947,
      "elevation": 289.0,
      "location": "Aielo de Malferit",
      "longitude": -0.5914752,
      "code": "46042"
    },
    {
      "latitude": 38.88172539,
      "elevation": 265.0,
      "location": "Aielo de Rugat",
      "longitude": -0.34335159,
      "code": "46043"
    },
    {
      "latitude": 41.76840775,
      "elevation": 405.0,
      "location": "Aiguafreda",
      "longitude": 2.25066785,
      "code": "08014"
    },
    {
      "latitude": 41.32933899,
      "elevation": 273.0,
      "location": "Aiguam\u00farcia",
      "longitude": 1.35854088,
      "code": "43001"
    },
    {
      "latitude": 41.93845315,
      "elevation": 164.0,
      "location": "Aiguaviva",
      "longitude": 2.76163011,
      "code": "17002"
    },
    {
      "latitude": 38.49887092,
      "elevation": 332.0,
      "location": "Aig\u00fces",
      "longitude": -0.36258669,
      "code": "03004"
    },
    {
      "latitude": 41.81670398,
      "elevation": 432.0,
      "location": "Ainz\u00f3n",
      "longitude": -1.51925171,
      "code": "50006"
    },
    {
      "latitude": 42.67964879,
      "elevation": 1041.0,
      "location": "Aisa",
      "longitude": -0.61987313,
      "code": "22006"
    },
    {
      "latitude": 41.49464547,
      "elevation": 108.0,
      "location": "Aitona",
      "longitude": 0.4579458,
      "code": "25038"
    },
    {
      "latitude": 43.2556775,
      "elevation": 58.0,
      "location": "Aizarnazabal",
      "longitude": -2.23623444,
      "code": "20003"
    },
    {
      "latitude": 40.53506813,
      "elevation": 680.0,
      "location": "Ajalvir",
      "longitude": -3.48071016,
      "code": "28002"
    },
    {
      "latitude": 42.16750753,
      "elevation": 1039.0,
      "location": "Ajamil de Cameros",
      "longitude": -2.48762529,
      "code": "26004"
    },
    {
      "latitude": 43.30828439,
      "elevation": 37.0,
      "location": "Ajangiz",
      "longitude": -2.66433285,
      "code": "48911"
    },
    {
      "latitude": 39.71353745,
      "elevation": 773.0,
      "location": "Ajofr\u00edn",
      "longitude": -3.98225489,
      "code": "45001"
    },
    {
      "latitude": 41.02331848,
      "elevation": 698.0,
      "location": "Alac\u00f3n",
      "longitude": -0.6964716,
      "code": "44006"
    },
    {
      "latitude": 41.24916598,
      "elevation": 775.0,
      "location": "Aladr\u00e9n",
      "longitude": -1.1560466,
      "code": "50007"
    },
    {
      "latitude": 41.30756844,
      "elevation": 752.0,
      "location": "Alaejos",
      "longitude": -5.21675691,
      "code": "47004"
    },
    {
      "latitude": 41.77030322,
      "elevation": 235.0,
      "location": "Alag\u00f3n",
      "longitude": -1.12214332,
      "code": "50008"
    },
    {
      "latitude": 39.97359138,
      "elevation": 260.0,
      "location": "Alag\u00f3n del R\u00edo",
      "longitude": -6.31697452,
      "code": "10903"
    },
    {
      "latitude": 39.93484767,
      "elevation": 129.0,
      "location": "Alaior",
      "longitude": 4.13954133,
      "code": "07002"
    },
    {
      "latitude": 28.06238287,
      "elevation": 803.0,
      "location": "Alajer\u00f3",
      "longitude": -17.23786066,
      "code": "38003"
    },
    {
      "latitude": 37.2094587,
      "elevation": 433.0,
      "location": "Alameda",
      "longitude": -4.66026922,
      "code": "29001"
    },
    {
      "latitude": 40.6503007,
      "elevation": 712.0,
      "location": "Alameda de Gard\u00f3n, La",
      "longitude": -6.75822367,
      "code": "37005"
    },
    {
      "latitude": 40.01343634,
      "elevation": 595.0,
      "location": "Alameda de la Sagra",
      "longitude": -3.79673062,
      "code": "45002"
    },
    {
      "latitude": 40.91658315,
      "elevation": 1104.0,
      "location": "Alameda del Valle",
      "longitude": -3.84366195,
      "code": "28003"
    },
    {
      "latitude": 37.58043998,
      "elevation": 861.0,
      "location": "Alamedilla",
      "longitude": -3.24475946,
      "code": "18002"
    },
    {
      "latitude": 40.47239117,
      "elevation": 756.0,
      "location": "Alamedilla, La",
      "longitude": -6.82757395,
      "code": "37006"
    },
    {
      "latitude": 38.67690477,
      "elevation": 446.0,
      "location": "Alamillo",
      "longitude": -4.79003492,
      "code": "13003"
    },
    {
      "latitude": 40.86320359,
      "elevation": 1064.0,
      "location": "Alaminos",
      "longitude": -2.72589856,
      "code": "19004"
    },
    {
      "latitude": 41.61621371,
      "elevation": 211.0,
      "location": "Alam\u00fas, Els",
      "longitude": 0.7394365,
      "code": "25004"
    },
    {
      "latitude": 38.78524438,
      "elevation": 322.0,
      "location": "Alange",
      "longitude": -6.24722704,
      "code": "06004"
    },
    {
      "latitude": 38.03730155,
      "elevation": 673.0,
      "location": "Alan\u00eds",
      "longitude": -5.71549984,
      "code": "41002"
    },
    {
      "latitude": 39.45807854,
      "elevation": 45.0,
      "location": "Alaqu\u00e0s",
      "longitude": -0.46015527,
      "code": "46005"
    },
    {
      "latitude": 42.66001057,
      "elevation": 851.0,
      "location": "Alar del Rey",
      "longitude": -4.31130963,
      "code": "34005"
    },
    {
      "latitude": 40.74752801,
      "elevation": 881.0,
      "location": "Alaraz",
      "longitude": -5.28800069,
      "code": "37007"
    },
    {
      "latitude": 41.20459678,
      "elevation": 849.0,
      "location": "Alarba",
      "longitude": -1.61294807,
      "code": "50009"
    },
    {
      "latitude": 39.54670505,
      "elevation": 840.0,
      "location": "Alarc\u00f3n",
      "longitude": -2.0862032,
      "code": "16003"
    },
    {
      "latitude": 40.84985405,
      "elevation": 830.0,
      "location": "Alarilla",
      "longitude": -3.10521744,
      "code": "19005"
    },
    {
      "latitude": 39.70531287,
      "elevation": 224.0,
      "location": "Alar\u00f3",
      "longitude": 2.78929422,
      "code": "07001"
    },
    {
      "latitude": 39.09494843,
      "elevation": 858.0,
      "location": "Alatoz",
      "longitude": -1.36097604,
      "code": "02002"
    },
    {
      "latitude": 40.61782196,
      "elevation": 975.0,
      "location": "Alba",
      "longitude": -1.34533155,
      "code": "44007"
    },
    {
      "latitude": 41.81249794,
      "elevation": 782.0,
      "location": "Alba de Cerrato",
      "longitude": -4.3659333,
      "code": "34006"
    },
    {
      "latitude": 40.82743588,
      "elevation": 836.0,
      "location": "Alba de Tormes",
      "longitude": -5.51211229,
      "code": "37008"
    },
    {
      "latitude": 40.67159061,
      "elevation": 786.0,
      "location": "Alba de Yeltes",
      "longitude": -6.31599973,
      "code": "37009"
    },
    {
      "latitude": 38.99588053,
      "elevation": 681.0,
      "location": "Albacete",
      "longitude": -1.85574745,
      "code": "02003"
    },
    {
      "latitude": 41.44904442,
      "elevation": 372.0,
      "location": "Albag\u00e9s, L'",
      "longitude": 0.73854698,
      "code": "25006"
    },
    {
      "latitude": 38.84180459,
      "elevation": 311.0,
      "location": "Albaida",
      "longitude": -0.51986706,
      "code": "46006"
    },
    {
      "latitude": 37.42711042,
      "elevation": 164.0,
      "location": "Albaida del Aljarafe",
      "longitude": -6.16648075,
      "code": "41003"
    },
    {
      "latitude": 39.39721187,
      "elevation": 10.0,
      "location": "Albal",
      "longitude": -0.41464448,
      "code": "46007"
    },
    {
      "latitude": 38.61923882,
      "elevation": 937.0,
      "location": "Albaladejo",
      "longitude": -2.80484449,
      "code": "13004"
    },
    {
      "latitude": 39.80787144,
      "elevation": 915.0,
      "location": "Albaladejo del Cuende",
      "longitude": -2.23018373,
      "code": "16004"
    },
    {
      "latitude": 39.20127117,
      "elevation": 11.0,
      "location": "Albalat de la Ribera",
      "longitude": -0.38619815,
      "code": "46008"
    },
    {
      "latitude": 39.54379091,
      "elevation": 17.0,
      "location": "Albalat dels Sorells",
      "longitude": -0.34583998,
      "code": "46009"
    },
    {
      "latitude": 39.70270205,
      "elevation": 97.0,
      "location": "Albalat dels Tarongers",
      "longitude": -0.33712468,
      "code": "46010"
    },
    {
      "latitude": 41.72129514,
      "elevation": 189.0,
      "location": "Albalate de Cinca",
      "longitude": 0.14512716,
      "code": "22007"
    },
    {
      "latitude": 40.30728662,
      "elevation": 759.0,
      "location": "Albalate de Zorita",
      "longitude": -2.84352592,
      "code": "19006"
    },
    {
      "latitude": 40.36623912,
      "elevation": 852.0,
      "location": "Albalate de las Nogueras",
      "longitude": -2.27664306,
      "code": "16005"
    },
    {
      "latitude": 41.12084779,
      "elevation": 343.0,
      "location": "Albalate del Arzobispo",
      "longitude": -0.51092341,
      "code": "44008"
    },
    {
      "latitude": 41.73693309,
      "elevation": 261.0,
      "location": "Albalatillo",
      "longitude": -0.15067546,
      "code": "22008"
    },
    {
      "latitude": 39.25569733,
      "elevation": 502.0,
      "location": "Albal\u00e1",
      "longitude": -6.18502247,
      "code": "10007"
    },
    {
      "latitude": 37.79019044,
      "elevation": 862.0,
      "location": "Albanchez de M\u00e1gina",
      "longitude": -3.46650587,
      "code": "23001"
    },
    {
      "latitude": 42.30454655,
      "elevation": 234.0,
      "location": "Albany\u00e0",
      "longitude": 2.72019727,
      "code": "17003"
    },
    {
      "latitude": 40.30753483,
      "elevation": 742.0,
      "location": "Albares",
      "longitude": -3.0113022,
      "code": "19007"
    },
    {
      "latitude": 40.40668217,
      "elevation": 1170.0,
      "location": "Albarrac\u00edn",
      "longitude": -1.44449794,
      "code": "44009"
    },
    {
      "latitude": 39.89733776,
      "elevation": 451.0,
      "location": "Albarreal de Tajo",
      "longitude": -4.22825628,
      "code": "45003"
    },
    {
      "latitude": 38.5708754,
      "elevation": 582.0,
      "location": "Albatana",
      "longitude": -1.52275248,
      "code": "02004"
    },
    {
      "latitude": 38.17894636,
      "elevation": 15.0,
      "location": "Albatera",
      "longitude": -0.86792141,
      "code": "03005"
    },
    {
      "latitude": 41.57246685,
      "elevation": 146.0,
      "location": "Albat\u00e0rrec",
      "longitude": 0.60330154,
      "code": "25007"
    },
    {
      "latitude": 41.86532533,
      "elevation": 360.0,
      "location": "Albelda",
      "longitude": 0.46106724,
      "code": "22009"
    },
    {
      "latitude": 42.35697454,
      "elevation": 537.0,
      "location": "Albelda de Iregua",
      "longitude": -2.47260697,
      "code": "26005"
    },
    {
      "latitude": 40.48735502,
      "elevation": 831.0,
      "location": "Albendea",
      "longitude": -2.41843336,
      "code": "16006"
    },
    {
      "latitude": 41.22747368,
      "elevation": 1189.0,
      "location": "Albendiego",
      "longitude": -3.05238595,
      "code": "19008"
    },
    {
      "latitude": 40.10275557,
      "elevation": 960.0,
      "location": "Albentosa",
      "longitude": -0.76981698,
      "code": "44010"
    },
    {
      "latitude": 39.51323012,
      "elevation": 811.0,
      "location": "Alberca de Z\u00e1ncara, La",
      "longitude": -2.49058346,
      "code": "16007"
    },
    {
      "latitude": 40.48866243,
      "elevation": 1044.0,
      "location": "Alberca, La",
      "longitude": -6.10993723,
      "code": "37010"
    },
    {
      "latitude": 40.41223781,
      "elevation": 736.0,
      "location": "Alberguer\u00eda de Arga\u00f1\u00e1n, La",
      "longitude": -6.81331694,
      "code": "37011"
    },
    {
      "latitude": 39.11685193,
      "elevation": 26.0,
      "location": "Alberic",
      "longitude": -0.51744033,
      "code": "46011"
    },
    {
      "latitude": 42.40622168,
      "elevation": 449.0,
      "location": "Alberite",
      "longitude": -2.44084091,
      "code": "26006"
    },
    {
      "latitude": 41.82047221,
      "elevation": 378.0,
      "location": "Alberite de San Juan",
      "longitude": -1.47138793,
      "code": "50010"
    },
    {
      "latitude": 42.05012017,
      "elevation": 442.0,
      "location": "Albero Alto",
      "longitude": -0.33683273,
      "code": "22011"
    },
    {
      "latitude": 42.02477494,
      "elevation": 408.0,
      "location": "Albero Bajo",
      "longitude": -0.38085369,
      "code": "22012"
    },
    {
      "latitude": 41.90818369,
      "elevation": 352.0,
      "location": "Alberuela de Tubo",
      "longitude": -0.21403714,
      "code": "22013"
    },
    {
      "latitude": 41.75100558,
      "elevation": 236.0,
      "location": "Albesa",
      "longitude": 0.6604596,
      "code": "25008"
    },
    {
      "latitude": 41.82722238,
      "elevation": 412.0,
      "location": "Albeta",
      "longitude": -1.50040452,
      "code": "50011"
    },
    {
      "latitude": 41.42217677,
      "elevation": 527.0,
      "location": "Albi, L'",
      "longitude": 0.93684438,
      "code": "25009"
    },
    {
      "latitude": 42.27617073,
      "elevation": 830.0,
      "location": "Albillos",
      "longitude": -3.79109464,
      "code": "09009"
    },
    {
      "latitude": 41.24598683,
      "elevation": 200.0,
      "location": "Albinyana",
      "longitude": 1.48632206,
      "code": "43002"
    },
    {
      "latitude": 41.25186573,
      "elevation": 822.0,
      "location": "Albiol, L'",
      "longitude": 1.08979953,
      "code": "43003"
    },
    {
      "latitude": 43.1293542,
      "elevation": 278.0,
      "location": "Albiztur",
      "longitude": -2.13699819,
      "code": "20004"
    },
    {
      "latitude": 40.35792479,
      "elevation": 538.0,
      "location": "Alboc\u00e0sser",
      "longitude": 0.02412299,
      "code": "12003"
    },
    {
      "latitude": 37.03339629,
      "elevation": 381.0,
      "location": "Alboloduy",
      "longitude": -2.62168571,
      "code": "04005"
    },
    {
      "latitude": 37.23090185,
      "elevation": 649.0,
      "location": "Albolote",
      "longitude": -3.65748033,
      "code": "18003"
    },
    {
      "latitude": 36.82729026,
      "elevation": 898.0,
      "location": "Albond\u00f3n",
      "longitude": -3.21087374,
      "code": "18004"
    },
    {
      "latitude": 42.10437187,
      "elevation": 25.0,
      "location": "Albons",
      "longitude": 3.08590521,
      "code": "17004"
    },
    {
      "latitude": 39.39152396,
      "elevation": 311.0,
      "location": "Alborache",
      "longitude": -0.77134683,
      "code": "46012"
    },
    {
      "latitude": 39.50024605,
      "elevation": 6.0,
      "location": "Alboraya",
      "longitude": -0.34992845,
      "code": "46013"
    },
    {
      "latitude": 39.27835442,
      "elevation": 706.0,
      "location": "Alborea",
      "longitude": -1.39670449,
      "code": "02005"
    },
    {
      "latitude": 41.33502243,
      "elevation": 150.0,
      "location": "Alborge",
      "longitude": -0.35862022,
      "code": "50012"
    },
    {
      "latitude": 40.83545261,
      "elevation": 911.0,
      "location": "Albornos",
      "longitude": -4.88627099,
      "code": "05005"
    },
    {
      "latitude": 37.38850758,
      "elevation": 420.0,
      "location": "Albox",
      "longitude": -2.14799133,
      "code": "04006"
    },
    {
      "latitude": 38.02822198,
      "elevation": 182.0,
      "location": "Albudeite",
      "longitude": -1.38554425,
      "code": "30004"
    },
    {
      "latitude": 38.71641036,
      "elevation": 251.0,
      "location": "Albuera, La",
      "longitude": -6.8226616,
      "code": "06005"
    },
    {
      "latitude": 39.54500337,
      "elevation": 7.0,
      "location": "Albuixech",
      "longitude": -0.32290668,
      "code": "46014"
    },
    {
      "latitude": 39.21986861,
      "elevation": 430.0,
      "location": "Alburquerque",
      "longitude": -7.00101838,
      "code": "06006"
    },
    {
      "latitude": 36.79129267,
      "elevation": 240.0,
      "location": "Albu\u00f1ol",
      "longitude": -3.20167375,
      "code": "18006"
    },
    {
      "latitude": 36.92926956,
      "elevation": 734.0,
      "location": "Albu\u00f1uelas",
      "longitude": -3.62953573,
      "code": "18007"
    },
    {
      "latitude": 37.22739368,
      "elevation": 1114.0,
      "location": "Albu\u00f1\u00e1n",
      "longitude": -3.13273196,
      "code": "18005"
    },
    {
      "latitude": 37.28686167,
      "elevation": 487.0,
      "location": "Alb\u00e1nchez",
      "longitude": -2.18135854,
      "code": "04004"
    },
    {
      "latitude": 40.00081296,
      "elevation": 530.0,
      "location": "Alcab\u00f3n",
      "longitude": -4.36889281,
      "code": "45004"
    },
    {
      "latitude": 38.6489758,
      "elevation": 925.0,
      "location": "Alcadozo",
      "longitude": -1.9802275,
      "code": "02006"
    },
    {
      "latitude": 40.95374009,
      "elevation": 658.0,
      "location": "Alcaine",
      "longitude": -0.70560643,
      "code": "44011"
    },
    {
      "latitude": 38.74965349,
      "elevation": 226.0,
      "location": "Alcalal\u00ed",
      "longitude": -0.04160798,
      "code": "03006"
    },
    {
      "latitude": 40.30417404,
      "elevation": 158.0,
      "location": "Alcal\u00e0 de Xivert",
      "longitude": 0.22571524,
      "code": "12004"
    },
    {
      "latitude": 41.81558439,
      "elevation": 225.0,
      "location": "Alcal\u00e1 de Ebro",
      "longitude": -1.19436833,
      "code": "50013"
    },
    {
      "latitude": 37.33466457,
      "elevation": 43.0,
      "location": "Alcal\u00e1 de Guada\u00edra",
      "longitude": -5.85065057,
      "code": "41004"
    },
    {
      "latitude": 42.06736004,
      "elevation": 471.0,
      "location": "Alcal\u00e1 de Gurrea",
      "longitude": -0.68683169,
      "code": "22014"
    },
    {
      "latitude": 40.48033232,
      "elevation": 587.0,
      "location": "Alcal\u00e1 de Henares",
      "longitude": -3.36925102,
      "code": "28005"
    },
    {
      "latitude": 41.78627271,
      "elevation": 763.0,
      "location": "Alcal\u00e1 de Moncayo",
      "longitude": -1.69707293,
      "code": "50014"
    },
    {
      "latitude": 40.37166968,
      "elevation": 1403.0,
      "location": "Alcal\u00e1 de la Selva",
      "longitude": -0.7203944,
      "code": "44012"
    },
    {
      "latitude": 40.02719047,
      "elevation": 1194.0,
      "location": "Alcal\u00e1 de la Vega",
      "longitude": -1.52560035,
      "code": "16008"
    },
    {
      "latitude": 36.46294815,
      "elevation": 212.0,
      "location": "Alcal\u00e1 de los Gazules",
      "longitude": -5.72311956,
      "code": "11001"
    },
    {
      "latitude": 39.1932018,
      "elevation": 547.0,
      "location": "Alcal\u00e1 del J\u00facar",
      "longitude": -1.42932697,
      "code": "02007"
    },
    {
      "latitude": 42.07761628,
      "elevation": 521.0,
      "location": "Alcal\u00e1 del Obispo",
      "longitude": -0.29309585,
      "code": "22015"
    },
    {
      "latitude": 37.5171086,
      "elevation": 23.0,
      "location": "Alcal\u00e1 del R\u00edo",
      "longitude": -5.97857253,
      "code": "41005"
    },
    {
      "latitude": 36.90506622,
      "elevation": 618.0,
      "location": "Alcal\u00e1 del Valle",
      "longitude": -5.17259873,
      "code": "11002"
    },
    {
      "latitude": 37.45979131,
      "elevation": 1029.0,
      "location": "Alcal\u00e1 la Real",
      "longitude": -3.92944941,
      "code": "23002"
    },
    {
      "latitude": 41.90586236,
      "elevation": 499.0,
      "location": "Alcampell",
      "longitude": 0.43199805,
      "code": "22016"
    },
    {
      "latitude": 42.40429832,
      "elevation": 348.0,
      "location": "Alcanadre",
      "longitude": -2.12053306,
      "code": "26007"
    },
    {
      "latitude": 40.54396913,
      "elevation": 70.0,
      "location": "Alcanar",
      "longitude": 0.48110591,
      "code": "43004"
    },
    {
      "latitude": 37.9716806,
      "elevation": 70.0,
      "location": "Alcantarilla",
      "longitude": -1.21291206,
      "code": "30005"
    },
    {
      "latitude": 40.54840902,
      "elevation": 843.0,
      "location": "Alcantud",
      "longitude": -2.33196424,
      "code": "16009"
    },
    {
      "latitude": 41.48098212,
      "elevation": 214.0,
      "location": "Alcan\u00f3",
      "longitude": 0.61727597,
      "code": "25010"
    },
    {
      "latitude": 38.38656136,
      "elevation": 609.0,
      "location": "Alcaracejos",
      "longitude": -4.96709118,
      "code": "14003"
    },
    {
      "latitude": 38.66425104,
      "elevation": 953.0,
      "location": "Alcaraz",
      "longitude": -2.49034957,
      "code": "02008"
    },
    {
      "latitude": 41.56301538,
      "elevation": 134.0,
      "location": "Alcarr\u00e0s",
      "longitude": 0.52411008,
      "code": "25011"
    },
    {
      "latitude": 36.90250323,
      "elevation": 505.0,
      "location": "Alcauc\u00edn",
      "longitude": -4.11413368,
      "code": "29002"
    },
    {
      "latitude": 37.59013356,
      "elevation": 675.0,
      "location": "Alcaudete",
      "longitude": -4.08750989,
      "code": "23003"
    },
    {
      "latitude": 39.78836407,
      "elevation": 412.0,
      "location": "Alcaudete de la Jara",
      "longitude": -4.87037733,
      "code": "45006"
    },
    {
      "latitude": 41.37956285,
      "elevation": 731.0,
      "location": "Alcazar\u00e9n",
      "longitude": -4.67125117,
      "code": "47005"
    },
    {
      "latitude": 41.69839436,
      "elevation": 806.0,
      "location": "Alca\u00f1ices",
      "longitude": -6.34943716,
      "code": "49003"
    },
    {
      "latitude": 41.05125534,
      "elevation": 335.0,
      "location": "Alca\u00f1iz",
      "longitude": -0.13284433,
      "code": "44013"
    },
    {
      "latitude": 39.90341743,
      "elevation": 373.0,
      "location": "Alca\u00f1izo",
      "longitude": -5.10585907,
      "code": "45005"
    },
    {
      "latitude": 39.26111875,
      "elevation": 639.0,
      "location": "Alcoba",
      "longitude": -4.47679962,
      "code": "13006"
    },
    {
      "latitude": 40.54104188,
      "elevation": 669.0,
      "location": "Alcobendas",
      "longitude": -3.63240185,
      "code": "28006"
    },
    {
      "latitude": 40.4688863,
      "elevation": 782.0,
      "location": "Alcocer",
      "longitude": -2.60873463,
      "code": "19009"
    },
    {
      "latitude": 38.79447224,
      "elevation": 345.0,
      "location": "Alcocer de Planes",
      "longitude": -0.40197036,
      "code": "03007"
    },
    {
      "latitude": 42.47376788,
      "elevation": 798.0,
      "location": "Alcocero de Mola",
      "longitude": -3.35835902,
      "code": "09010"
    },
    {
      "latitude": 40.41718948,
      "elevation": 810.0,
      "location": "Alcohujate",
      "longitude": -2.6158717,
      "code": "16011"
    },
    {
      "latitude": 36.97361957,
      "elevation": 746.0,
      "location": "Alcolea",
      "longitude": -2.96066637,
      "code": "04007"
    },
    {
      "latitude": 38.98670022,
      "elevation": 652.0,
      "location": "Alcolea de Calatrava",
      "longitude": -4.11605576,
      "code": "13007"
    },
    {
      "latitude": 41.718281,
      "elevation": 186.0,
      "location": "Alcolea de Cinca",
      "longitude": 0.11891268,
      "code": "22017"
    },
    {
      "latitude": 39.80910603,
      "elevation": 353.0,
      "location": "Alcolea de Tajo",
      "longitude": -5.14799672,
      "code": "45007"
    },
    {
      "latitude": 41.20964689,
      "elevation": 1001.0,
      "location": "Alcolea de las Pe\u00f1as",
      "longitude": -2.78476205,
      "code": "19010"
    },
    {
      "latitude": 41.03561797,
      "elevation": 1203.0,
      "location": "Alcolea del Pinar",
      "longitude": -2.46742871,
      "code": "19011"
    },
    {
      "latitude": 37.61469683,
      "elevation": 32.0,
      "location": "Alcolea del R\u00edo",
      "longitude": -5.67165417,
      "code": "41006"
    },
    {
      "latitude": 38.67548564,
      "elevation": 735.0,
      "location": "Alcoleja",
      "longitude": -0.33100925,
      "code": "03008"
    },
    {
      "latitude": 41.64854933,
      "elevation": 215.0,
      "location": "Alcoletge",
      "longitude": 0.69423798,
      "code": "25012"
    },
    {
      "latitude": 39.24407471,
      "elevation": 308.0,
      "location": "Alcollar\u00edn",
      "longitude": -5.74011861,
      "code": "10009"
    },
    {
      "latitude": 41.72414597,
      "elevation": 1008.0,
      "location": "Alconaba",
      "longitude": -2.38569404,
      "code": "42006"
    },
    {
      "latitude": 40.91087853,
      "elevation": 829.0,
      "location": "Alconada",
      "longitude": -5.36395007,
      "code": "37012"
    },
    {
      "latitude": 41.45029431,
      "elevation": 946.0,
      "location": "Alconada de Maderuelo",
      "longitude": -3.48651859,
      "code": "40005"
    },
    {
      "latitude": 38.51593336,
      "elevation": 277.0,
      "location": "Alconchel",
      "longitude": -7.0713971,
      "code": "06007"
    },
    {
      "latitude": 41.20465968,
      "elevation": 893.0,
      "location": "Alconchel de Ariza",
      "longitude": -2.12311327,
      "code": "50015"
    },
    {
      "latitude": 39.71896379,
      "elevation": 839.0,
      "location": "Alconchel de la Estrella",
      "longitude": -2.57570176,
      "code": "16012"
    },
    {
      "latitude": 38.3981974,
      "elevation": 515.0,
      "location": "Alconera",
      "longitude": -6.47650617,
      "code": "06008"
    },
    {
      "latitude": 40.07561838,
      "elevation": 280.0,
      "location": "Alcora, l'",
      "longitude": -0.21228342,
      "code": "12005"
    },
    {
      "latitude": 40.35156977,
      "elevation": 711.0,
      "location": "Alcorc\u00f3n",
      "longitude": -3.82849494,
      "code": "28007"
    },
    {
      "latitude": 40.89137363,
      "elevation": 632.0,
      "location": "Alcorisa",
      "longitude": -0.38074056,
      "code": "44014"
    },
    {
      "latitude": 40.62732304,
      "elevation": 1414.0,
      "location": "Alcoroches",
      "longitude": -1.74456482,
      "code": "19013"
    },
    {
      "latitude": 41.26284738,
      "elevation": 244.0,
      "location": "Alcover",
      "longitude": 1.1686586,
      "code": "43005"
    },
    {
      "latitude": 38.69836894,
      "elevation": 561.0,
      "location": "Alcoy/Alcoi",
      "longitude": -0.47318376,
      "code": "03009"
    },
    {
      "latitude": 41.80686474,
      "elevation": 460.0,
      "location": "Alcubierre",
      "longitude": -0.45336179,
      "code": "22018"
    },
    {
      "latitude": 41.72597032,
      "elevation": 927.0,
      "location": "Alcubilla de Avellaneda",
      "longitude": -3.30409188,
      "code": "42007"
    },
    {
      "latitude": 42.12775291,
      "elevation": 777.0,
      "location": "Alcubilla de Nogales",
      "longitude": -5.92188948,
      "code": "49004"
    },
    {
      "latitude": 41.25195347,
      "elevation": 1141.0,
      "location": "Alcubilla de las Pe\u00f1as",
      "longitude": -2.52741712,
      "code": "42008"
    },
    {
      "latitude": 38.75224968,
      "elevation": 806.0,
      "location": "Alcubillas",
      "longitude": -3.1347769,
      "code": "13008"
    },
    {
      "latitude": 39.79738167,
      "elevation": 775.0,
      "location": "Alcublas",
      "longitude": -0.70230954,
      "code": "46018"
    },
    {
      "latitude": 37.23587193,
      "elevation": 1025.0,
      "location": "Alcudia de Monteagud",
      "longitude": -2.26678969,
      "code": "04009"
    },
    {
      "latitude": 39.91552966,
      "elevation": 469.0,
      "location": "Alcudia de Veo",
      "longitude": -0.35475966,
      "code": "12006"
    },
    {
      "latitude": 39.18120757,
      "elevation": 487.0,
      "location": "Alcu\u00e9scar",
      "longitude": -6.22952976,
      "code": "10010"
    },
    {
      "latitude": 39.070653,
      "elevation": 37.0,
      "location": "Alc\u00e0ntera de X\u00faquer",
      "longitude": -0.55970929,
      "code": "46016"
    },
    {
      "latitude": 39.36854313,
      "elevation": 27.0,
      "location": "Alc\u00e0sser",
      "longitude": -0.44426722,
      "code": "46015"
    },
    {
      "latitude": 39.72044261,
      "elevation": 228.0,
      "location": "Alc\u00e1ntara",
      "longitude": -6.88754177,
      "code": "10008"
    },
    {
      "latitude": 39.38878541,
      "elevation": 643.0,
      "location": "Alc\u00e1zar de San Juan",
      "longitude": -3.20565748,
      "code": "13005"
    },
    {
      "latitude": 40.06337697,
      "elevation": 883.0,
      "location": "Alc\u00e1zar del Rey",
      "longitude": -2.80919335,
      "code": "16010"
    },
    {
      "latitude": 37.73327815,
      "elevation": 3.0,
      "location": "Alc\u00e1zares, Los",
      "longitude": -0.85304369,
      "code": "30902"
    },
    {
      "latitude": 37.33611796,
      "elevation": 955.0,
      "location": "Alc\u00f3ntar",
      "longitude": -2.59756879,
      "code": "04008"
    },
    {
      "latitude": 39.85133232,
      "elevation": 15.0,
      "location": "Alc\u00fadia",
      "longitude": 3.12052167,
      "code": "07003"
    },
    {
      "latitude": 38.97021311,
      "elevation": 158.0,
      "location": "Alc\u00fadia de Crespins, l'",
      "longitude": -0.58999491,
      "code": "46020"
    },
    {
      "latitude": 39.19576372,
      "elevation": 32.0,
      "location": "Alc\u00fadia, l'",
      "longitude": -0.50645447,
      "code": "46019"
    },
    {
      "latitude": 39.46491997,
      "elevation": 45.0,
      "location": "Aldaia",
      "longitude": -0.46197516,
      "code": "46021"
    },
    {
      "latitude": 41.18523007,
      "elevation": 881.0,
      "location": "Aldea Real",
      "longitude": -4.16510173,
      "code": "40012"
    },
    {
      "latitude": 41.46115669,
      "elevation": 738.0,
      "location": "Aldea de San Miguel",
      "longitude": -4.61850454,
      "code": "47006"
    },
    {
      "latitude": 27.98416471,
      "elevation": 69.0,
      "location": "Aldea de San Nicol\u00e1s, La",
      "longitude": -15.78024028,
      "code": "35020"
    },
    {
      "latitude": 39.28802899,
      "elevation": 391.0,
      "location": "Aldea del Cano",
      "longitude": -6.31924726,
      "code": "10012"
    },
    {
      "latitude": 40.32590971,
      "elevation": 467.0,
      "location": "Aldea del Fresno",
      "longitude": -4.20244123,
      "code": "28008"
    },
    {
      "latitude": 40.70728221,
      "elevation": 690.0,
      "location": "Aldea del Obispo",
      "longitude": -6.79136324,
      "code": "37015"
    },
    {
      "latitude": 39.56257272,
      "elevation": 442.0,
      "location": "Aldea del Obispo, La",
      "longitude": -5.91203013,
      "code": "10013"
    },
    {
      "latitude": 38.74165629,
      "elevation": 663.0,
      "location": "Aldea del Rey",
      "longitude": -3.83953334,
      "code": "13009"
    },
    {
      "latitude": 40.18510654,
      "elevation": 502.0,
      "location": "Aldea en Cabo",
      "longitude": -4.45878497,
      "code": "45008"
    },
    {
      "latitude": 40.74056185,
      "elevation": 11.0,
      "location": "Aldea, L'",
      "longitude": 0.6084918,
      "code": "43904"
    },
    {
      "latitude": 39.52726878,
      "elevation": 565.0,
      "location": "Aldeacentenera",
      "longitude": -5.62949879,
      "code": "10011"
    },
    {
      "latitude": 40.38095565,
      "elevation": 864.0,
      "location": "Aldeacipreste",
      "longitude": -5.89609156,
      "code": "37013"
    },
    {
      "latitude": 41.21845758,
      "elevation": 687.0,
      "location": "Aldead\u00e1vila de la Ribera",
      "longitude": -6.61955778,
      "code": "37014"
    },
    {
      "latitude": 41.67190859,
      "elevation": 1010.0,
      "location": "Aldealafuente",
      "longitude": -2.32538048,
      "code": "42009"
    },
    {
      "latitude": 41.24400157,
      "elevation": 956.0,
      "location": "Aldealcorvo",
      "longitude": -3.79129907,
      "code": "40006"
    },
    {
      "latitude": 40.98227385,
      "elevation": 790.0,
      "location": "Aldealengua",
      "longitude": -5.5496339,
      "code": "37016"
    },
    {
      "latitude": 41.06403629,
      "elevation": 1207.0,
      "location": "Aldealengua de Pedraza",
      "longitude": -3.80605234,
      "code": "40007"
    },
    {
      "latitude": 41.46215316,
      "elevation": 948.0,
      "location": "Aldealengua de Santa Mar\u00eda",
      "longitude": -3.46774745,
      "code": "40008"
    },
    {
      "latitude": 41.89982674,
      "elevation": 1127.0,
      "location": "Aldealices",
      "longitude": -2.30977182,
      "code": "42010"
    },
    {
      "latitude": 41.78155723,
      "elevation": 1053.0,
      "location": "Aldealpozo",
      "longitude": -2.20662758,
      "code": "42011"
    },
    {
      "latitude": 41.87900102,
      "elevation": 1089.0,
      "location": "Aldealse\u00f1or",
      "longitude": -2.31545582,
      "code": "42012"
    },
    {
      "latitude": 41.51174709,
      "elevation": 704.0,
      "location": "Aldeamayor de San Mart\u00edn",
      "longitude": -4.63966658,
      "code": "47007"
    },
    {
      "latitude": 39.75906357,
      "elevation": 510.0,
      "location": "Aldeanueva de Barbarroya",
      "longitude": -5.01945289,
      "code": "45009"
    },
    {
      "latitude": 42.22958732,
      "elevation": 343.0,
      "location": "Aldeanueva de Ebro",
      "longitude": -1.8880546,
      "code": "26008"
    },
    {
      "latitude": 41.14689386,
      "elevation": 865.0,
      "location": "Aldeanueva de Figueroa",
      "longitude": -5.52347397,
      "code": "37017"
    },
    {
      "latitude": 40.68184578,
      "elevation": 946.0,
      "location": "Aldeanueva de Guadalajara",
      "longitude": -3.04610613,
      "code": "19015"
    },
    {
      "latitude": 39.63777466,
      "elevation": 577.0,
      "location": "Aldeanueva de San Bartolom\u00e9",
      "longitude": -5.11355468,
      "code": "45010"
    },
    {
      "latitude": 40.38196006,
      "elevation": 1162.0,
      "location": "Aldeanueva de Santa Cruz",
      "longitude": -5.41959204,
      "code": "05007"
    },
    {
      "latitude": 41.46091726,
      "elevation": 1147.0,
      "location": "Aldeanueva de la Serrezuela",
      "longitude": -3.78295833,
      "code": "40009"
    },
    {
      "latitude": 40.61484759,
      "elevation": 981.0,
      "location": "Aldeanueva de la Sierra",
      "longitude": -6.09975201,
      "code": "37018"
    },
    {
      "latitude": 40.13008193,
      "elevation": 658.0,
      "location": "Aldeanueva de la Vera",
      "longitude": -5.69860869,
      "code": "10014"
    },
    {
      "latitude": 40.26017589,
      "elevation": 523.0,
      "location": "Aldeanueva del Camino",
      "longitude": -5.92688369,
      "code": "10015"
    },
    {
      "latitude": 41.08340234,
      "elevation": 858.0,
      "location": "Aldeanueva del Codonal",
      "longitude": -4.54334402,
      "code": "40010"
    },
    {
      "latitude": 38.41203515,
      "elevation": 698.0,
      "location": "Aldeaquemada",
      "longitude": -3.37167309,
      "code": "23004"
    },
    {
      "latitude": 41.11036473,
      "elevation": 782.0,
      "location": "Aldearrodrigo",
      "longitude": -5.80622486,
      "code": "37019"
    },
    {
      "latitude": 41.00767773,
      "elevation": 811.0,
      "location": "Aldearrubia",
      "longitude": -5.49931896,
      "code": "37020"
    },
    {
      "latitude": 41.04920154,
      "elevation": 859.0,
      "location": "Aldeaseca",
      "longitude": -4.81751947,
      "code": "05008"
    },
    {
      "latitude": 40.81839321,
      "elevation": 862.0,
      "location": "Aldeaseca de Alba",
      "longitude": -5.44630017,
      "code": "37021"
    },
    {
      "latitude": 40.941953,
      "elevation": 869.0,
      "location": "Aldeaseca de la Frontera",
      "longitude": -5.20729713,
      "code": "37022"
    },
    {
      "latitude": 41.47135098,
      "elevation": 833.0,
      "location": "Aldeaso\u00f1a",
      "longitude": -4.05567251,
      "code": "40013"
    },
    {
      "latitude": 40.92258038,
      "elevation": 794.0,
      "location": "Aldeatejada",
      "longitude": -5.69271976,
      "code": "37023"
    },
    {
      "latitude": 40.58329506,
      "elevation": 909.0,
      "location": "Aldeavieja de Tormes",
      "longitude": -5.61727689,
      "code": "37024"
    },
    {
      "latitude": 41.51275118,
      "elevation": 957.0,
      "location": "Aldehorno",
      "longitude": -3.77937609,
      "code": "40014"
    },
    {
      "latitude": 40.01018979,
      "elevation": 263.0,
      "location": "Aldehuela de Jerte",
      "longitude": -6.23792328,
      "code": "10016"
    },
    {
      "latitude": 41.06435578,
      "elevation": 986.0,
      "location": "Aldehuela de Liestos",
      "longitude": -1.70175827,
      "code": "50016"
    },
    {
      "latitude": 41.8083039,
      "elevation": 1051.0,
      "location": "Aldehuela de Peri\u00e1\u00f1ez",
      "longitude": -2.30609736,
      "code": "42013"
    },
    {
      "latitude": 40.66181147,
      "elevation": 835.0,
      "location": "Aldehuela de Yeltes",
      "longitude": -6.24237223,
      "code": "37026"
    },
    {
      "latitude": 40.84367513,
      "elevation": 791.0,
      "location": "Aldehuela de la B\u00f3veda",
      "longitude": -6.04823708,
      "code": "37025"
    },
    {
      "latitude": 41.05560132,
      "elevation": 857.0,
      "location": "Aldehuela del Codonal",
      "longitude": -4.53683932,
      "code": "40015"
    },
    {
      "latitude": 40.40948687,
      "elevation": 1068.0,
      "location": "Aldehuela, La",
      "longitude": -5.40842904,
      "code": "05010"
    },
    {
      "latitude": 41.9949653,
      "elevation": 1254.0,
      "location": "Aldehuelas, Las",
      "longitude": -2.36600839,
      "code": "42014"
    },
    {
      "latitude": 37.16037152,
      "elevation": 1274.0,
      "location": "Aldeire",
      "longitude": -3.07267592,
      "code": "18010"
    },
    {
      "latitude": 41.35102075,
      "elevation": 967.0,
      "location": "Aldeonte",
      "longitude": -3.67854984,
      "code": "40016"
    },
    {
      "latitude": 40.88005368,
      "elevation": 14.0,
      "location": "Aldover",
      "longitude": 0.50001936,
      "code": "43006"
    },
    {
      "latitude": 37.79182064,
      "elevation": 616.0,
      "location": "Aledo",
      "longitude": -1.57298218,
      "code": "30006"
    },
    {
      "latitude": 43.10024762,
      "elevation": 96.0,
      "location": "Alegia",
      "longitude": -2.09931411,
      "code": "20005"
    },
    {
      "latitude": 42.83981158,
      "elevation": 568.0,
      "location": "Alegr\u00eda-Dulantzi",
      "longitude": -2.51243731,
      "code": "01001"
    },
    {
      "latitude": 41.20213628,
      "elevation": 258.0,
      "location": "Aleixar, L'",
      "longitude": 1.04627339,
      "code": "43007"
    },
    {
      "latitude": 41.49387798,
      "elevation": 92.0,
      "location": "Alella",
      "longitude": 2.29439029,
      "code": "08003"
    },
    {
      "latitude": 41.42055303,
      "elevation": 1062.0,
      "location": "Alentisque",
      "longitude": -2.33196346,
      "code": "42015"
    },
    {
      "latitude": 42.16281363,
      "elevation": 504.0,
      "location": "Alerre",
      "longitude": -0.46301496,
      "code": "22019"
    },
    {
      "latitude": 42.41347595,
      "elevation": 567.0,
      "location": "Alesanco",
      "longitude": -2.81705346,
      "code": "26009"
    },
    {
      "latitude": 42.40509672,
      "elevation": 575.0,
      "location": "Ales\u00f3n",
      "longitude": -2.69021015,
      "code": "26010"
    },
    {
      "latitude": 37.23688695,
      "elevation": 919.0,
      "location": "Alfacar",
      "longitude": -3.57046354,
      "code": "18011"
    },
    {
      "latitude": 39.42259817,
      "elevation": 11.0,
      "location": "Alfafar",
      "longitude": -0.39004439,
      "code": "46022"
    },
    {
      "latitude": 38.77274828,
      "elevation": 580.0,
      "location": "Alfafara",
      "longitude": -0.55552339,
      "code": "03010"
    },
    {
      "latitude": 41.61525007,
      "elevation": 193.0,
      "location": "Alfajar\u00edn",
      "longitude": -0.70180187,
      "code": "50017"
    },
    {
      "latitude": 40.54604768,
      "elevation": 1049.0,
      "location": "Alfambra",
      "longitude": -1.03356435,
      "code": "44016"
    },
    {
      "latitude": 41.43981344,
      "elevation": 446.0,
      "location": "Alfam\u00e9n",
      "longitude": -1.24312168,
      "code": "50018"
    },
    {
      "latitude": 40.87290535,
      "elevation": 336.0,
      "location": "Alfara de Carles",
      "longitude": 0.40041426,
      "code": "43008"
    },
    {
      "latitude": 39.76293575,
      "elevation": 175.0,
      "location": "Alfara de la Baronia",
      "longitude": -0.35498566,
      "code": "46024"
    },
    {
      "latitude": 39.54406602,
      "elevation": 30.0,
      "location": "Alfara del Patriarca",
      "longitude": -0.38497191,
      "code": "46025"
    },
    {
      "latitude": 41.2274102,
      "elevation": 813.0,
      "location": "Alfaraz de Sayago",
      "longitude": -5.98281029,
      "code": "49005"
    },
    {
      "latitude": 36.99507375,
      "elevation": 887.0,
      "location": "Alfarnate",
      "longitude": -4.25967244,
      "code": "29003"
    },
    {
      "latitude": 36.97957361,
      "elevation": 858.0,
      "location": "Alfarnatejo",
      "longitude": -4.27201165,
      "code": "29004"
    },
    {
      "latitude": 42.17839836,
      "elevation": 300.0,
      "location": "Alfaro",
      "longitude": -1.749283,
      "code": "26011"
    },
    {
      "latitude": 39.27680966,
      "elevation": 91.0,
      "location": "Alfarp",
      "longitude": -0.5595106,
      "code": "46026"
    },
    {
      "latitude": 38.90397541,
      "elevation": 193.0,
      "location": "Alfarras\u00ed",
      "longitude": -0.49639575,
      "code": "46027"
    },
    {
      "latitude": 41.82906515,
      "elevation": 280.0,
      "location": "Alfarr\u00e0s",
      "longitude": 0.57295527,
      "code": "25013"
    },
    {
      "latitude": 38.92780849,
      "elevation": 86.0,
      "location": "Alfauir",
      "longitude": -0.25158611,
      "code": "46023"
    },
    {
      "latitude": 39.83786953,
      "elevation": 213.0,
      "location": "Alfondeguilla",
      "longitude": -0.26847055,
      "code": "12007"
    },
    {
      "latitude": 41.20997627,
      "elevation": 373.0,
      "location": "Alforja",
      "longitude": 0.97506058,
      "code": "43009"
    },
    {
      "latitude": 41.32834097,
      "elevation": 165.0,
      "location": "Alforque",
      "longitude": -0.38546374,
      "code": "50019"
    },
    {
      "latitude": 43.52899938,
      "elevation": 83.0,
      "location": "Alfoz",
      "longitude": -7.40902014,
      "code": "27002"
    },
    {
      "latitude": 42.90751582,
      "elevation": 1021.0,
      "location": "Alfoz de Bricia",
      "longitude": -3.84781048,
      "code": "09011"
    },
    {
      "latitude": 43.37843804,
      "elevation": 44.0,
      "location": "Alfoz de Lloredo",
      "longitude": -4.17925871,
      "code": "39001"
    },
    {
      "latitude": 42.38482545,
      "elevation": 849.0,
      "location": "Alfoz de Quintanadue\u00f1as",
      "longitude": -3.73605255,
      "code": "09907"
    },
    {
      "latitude": 42.95577592,
      "elevation": 893.0,
      "location": "Alfoz de Santa Gadea",
      "longitude": -3.95206783,
      "code": "09012"
    },
    {
      "latitude": 38.58009496,
      "elevation": 89.0,
      "location": "Alf\u00e0s del Pi, l'",
      "longitude": -0.1026002,
      "code": "03011"
    },
    {
      "latitude": 41.82877093,
      "elevation": 248.0,
      "location": "Alf\u00e1ntega",
      "longitude": 0.1473625,
      "code": "22020"
    },
    {
      "latitude": 41.5224167,
      "elevation": 239.0,
      "location": "Alf\u00e9s",
      "longitude": 0.62011828,
      "code": "25014"
    },
    {
      "latitude": 37.46108715,
      "elevation": 9.0,
      "location": "Algaba, La",
      "longitude": -6.01324202,
      "code": "41007"
    },
    {
      "latitude": 42.21845829,
      "elevation": 738.0,
      "location": "Algadefe",
      "longitude": -5.58345899,
      "code": "24002"
    },
    {
      "latitude": 39.55960002,
      "elevation": 194.0,
      "location": "Algaida",
      "longitude": 2.89590963,
      "code": "07004"
    },
    {
      "latitude": 36.65594556,
      "elevation": 205.0,
      "location": "Algar",
      "longitude": -5.65719916,
      "code": "11003"
    },
    {
      "latitude": 41.13375349,
      "elevation": 900.0,
      "location": "Algar de Mesa",
      "longitude": -1.95910581,
      "code": "19016"
    },
    {
      "latitude": 39.7810922,
      "elevation": 187.0,
      "location": "Algar de Palancia",
      "longitude": -0.36745953,
      "code": "46028"
    },
    {
      "latitude": 37.32575532,
      "elevation": 606.0,
      "location": "Algarinejo",
      "longitude": -4.15798102,
      "code": "18012"
    },
    {
      "latitude": 40.00159068,
      "elevation": 1267.0,
      "location": "Algarra",
      "longitude": -1.43592559,
      "code": "16013"
    },
    {
      "latitude": 36.77326211,
      "elevation": 105.0,
      "location": "Algarrobo",
      "longitude": -4.03990708,
      "code": "29005"
    },
    {
      "latitude": 36.57399487,
      "elevation": 719.0,
      "location": "Algatoc\u00edn",
      "longitude": -5.2748105,
      "code": "29006"
    },
    {
      "latitude": 36.13137811,
      "elevation": 19.0,
      "location": "Algeciras",
      "longitude": -5.44774178,
      "code": "11004"
    },
    {
      "latitude": 39.1890727,
      "elevation": 17.0,
      "location": "Algemes\u00ed",
      "longitude": -0.43644269,
      "code": "46029"
    },
    {
      "latitude": 41.81439813,
      "elevation": 342.0,
      "location": "Algerri",
      "longitude": 0.63836183,
      "code": "25015"
    },
    {
      "latitude": 40.59595962,
      "elevation": 704.0,
      "location": "Algete",
      "longitude": -3.49771503,
      "code": "28009"
    },
    {
      "latitude": 39.75243658,
      "elevation": 173.0,
      "location": "Algimia de Alfara",
      "longitude": -0.3623082,
      "code": "46030"
    },
    {
      "latitude": 39.91434606,
      "elevation": 483.0,
      "location": "Algimia de Almonacid",
      "longitude": -0.4420873,
      "code": "12008"
    },
    {
      "latitude": 39.26153042,
      "elevation": 32.0,
      "location": "Alginet",
      "longitude": -0.46964795,
      "code": "46031"
    },
    {
      "latitude": 36.88076763,
      "elevation": 366.0,
      "location": "Algodonales",
      "longitude": -5.40470441,
      "code": "11005"
    },
    {
      "latitude": 41.56507478,
      "elevation": 661.0,
      "location": "Algodre",
      "longitude": -5.60389315,
      "code": "49006"
    },
    {
      "latitude": 40.96451938,
      "elevation": 1116.0,
      "location": "Algora",
      "longitude": -2.66723541,
      "code": "19017"
    },
    {
      "latitude": 38.08681637,
      "elevation": 23.0,
      "location": "Algorfa",
      "longitude": -0.79568423,
      "code": "03012"
    },
    {
      "latitude": 41.73631716,
      "elevation": 304.0,
      "location": "Alguaire",
      "longitude": 0.58391814,
      "code": "25016"
    },
    {
      "latitude": 38.05030529,
      "elevation": 88.0,
      "location": "Alguazas",
      "longitude": -1.24136075,
      "code": "30007"
    },
    {
      "latitude": 38.33800138,
      "elevation": 530.0,
      "location": "Algue\u00f1a",
      "longitude": -1.00303745,
      "code": "03013"
    },
    {
      "latitude": 37.01441356,
      "elevation": 428.0,
      "location": "Alg\u00e1mitas",
      "longitude": -5.1500159,
      "code": "41008"
    },
    {
      "latitude": 36.98991242,
      "elevation": 290.0,
      "location": "Alhabia",
      "longitude": -2.58702093,
      "code": "04010"
    },
    {
      "latitude": 36.95718281,
      "elevation": 520.0,
      "location": "Alhama de Almer\u00eda",
      "longitude": -2.56977648,
      "code": "04011"
    },
    {
      "latitude": 41.29507154,
      "elevation": 659.0,
      "location": "Alhama de Arag\u00f3n",
      "longitude": -1.89527354,
      "code": "50020"
    },
    {
      "latitude": 37.0037636,
      "elevation": 889.0,
      "location": "Alhama de Granada",
      "longitude": -3.98605626,
      "code": "18013"
    },
    {
      "latitude": 37.85237594,
      "elevation": 202.0,
      "location": "Alhama de Murcia",
      "longitude": -1.42462332,
      "code": "30008"
    },
    {
      "latitude": 38.89965302,
      "elevation": 860.0,
      "location": "Alhambra",
      "longitude": -3.05432597,
      "code": "13010"
    },
    {
      "latitude": 36.66314911,
      "elevation": 99.0,
      "location": "Alhaur\u00edn de la Torre",
      "longitude": -4.5604509,
      "code": "29007"
    },
    {
      "latitude": 36.64510025,
      "elevation": 240.0,
      "location": "Alhaur\u00edn el Grande",
      "longitude": -4.68702469,
      "code": "29008"
    },
    {
      "latitude": 37.10823076,
      "elevation": 736.0,
      "location": "Alhend\u00edn",
      "longitude": -3.64587295,
      "code": "18014"
    },
    {
      "latitude": 40.52587389,
      "elevation": 815.0,
      "location": "Alh\u00f3ndiga",
      "longitude": -2.8235825,
      "code": "19018"
    },
    {
      "latitude": 40.67415567,
      "elevation": 1105.0,
      "location": "Aliaga",
      "longitude": -0.70190468,
      "code": "44017"
    },
    {
      "latitude": 39.74122675,
      "elevation": 1005.0,
      "location": "Aliaguilla",
      "longitude": -1.32526984,
      "code": "16014"
    },
    {
      "latitude": 38.34548705,
      "elevation": 5.0,
      "location": "Alicante/Alacant",
      "longitude": -0.4831832,
      "code": "03014"
    },
    {
      "latitude": 36.96671607,
      "elevation": 414.0,
      "location": "Alic\u00fan",
      "longitude": -2.60215517,
      "code": "04012"
    },
    {
      "latitude": 37.60839263,
      "elevation": 700.0,
      "location": "Alic\u00fan de Ortega",
      "longitude": -3.13664857,
      "code": "18015"
    },
    {
      "latitude": 42.13994568,
      "elevation": 734.0,
      "location": "Alija del Infantado",
      "longitude": -5.83073301,
      "code": "24003"
    },
    {
      "latitude": 42.54871413,
      "elevation": 1049.0,
      "location": "Alins",
      "longitude": 1.31739181,
      "code": "25017"
    },
    {
      "latitude": 40.5859916,
      "elevation": 921.0,
      "location": "Alique",
      "longitude": -2.64422346,
      "code": "19019"
    },
    {
      "latitude": 39.42083991,
      "elevation": 350.0,
      "location": "Aliseda",
      "longitude": -6.69127661,
      "code": "10018"
    },
    {
      "latitude": 41.65428893,
      "elevation": 1016.0,
      "location": "Aliud",
      "longitude": -2.25238838,
      "code": "42016"
    },
    {
      "latitude": 41.29461031,
      "elevation": 262.0,
      "location": "Ali\u00f3",
      "longitude": 1.30595357,
      "code": "43010"
    },
    {
      "latitude": 37.2723312,
      "elevation": 34.0,
      "location": "Aljaraque",
      "longitude": -7.02327311,
      "code": "21002"
    },
    {
      "latitude": 39.04476158,
      "elevation": 261.0,
      "location": "Aljuc\u00e9n",
      "longitude": -6.33122406,
      "code": "06009"
    },
    {
      "latitude": 43.17280969,
      "elevation": 341.0,
      "location": "Alkiza",
      "longitude": -2.10870335,
      "code": "20006"
    },
    {
      "latitude": 43.27229373,
      "elevation": 524.0,
      "location": "Allande",
      "longitude": -6.60838301,
      "code": "33001"
    },
    {
      "latitude": 42.18941302,
      "elevation": 452.0,
      "location": "Allariz",
      "longitude": -7.80148365,
      "code": "32001"
    },
    {
      "latitude": 40.49232935,
      "elevation": 1425.0,
      "location": "Allepuz",
      "longitude": -0.72807625,
      "code": "44021"
    },
    {
      "latitude": 43.16103558,
      "elevation": 414.0,
      "location": "Aller",
      "longitude": -5.63476777,
      "code": "33002"
    },
    {
      "latitude": 42.56734094,
      "elevation": 422.0,
      "location": "Allo",
      "longitude": -2.02096998,
      "code": "31012"
    },
    {
      "latitude": 40.96934976,
      "elevation": 670.0,
      "location": "Alloza",
      "longitude": -0.53008193,
      "code": "44022"
    },
    {
      "latitude": 40.98563654,
      "elevation": 1200.0,
      "location": "Allueva",
      "longitude": -1.04251034,
      "code": "44023"
    },
    {
      "latitude": 42.70893341,
      "elevation": 455.0,
      "location": "All\u00edn/Allin",
      "longitude": -2.07596559,
      "code": "31011"
    },
    {
      "latitude": 41.73168979,
      "elevation": 248.0,
      "location": "Almacelles",
      "longitude": 0.43774764,
      "code": "25019"
    },
    {
      "latitude": 38.738893,
      "elevation": 523.0,
      "location": "Almadenejos",
      "longitude": -4.71219709,
      "code": "13012"
    },
    {
      "latitude": 40.90109075,
      "elevation": 1054.0,
      "location": "Almadrones",
      "longitude": -2.77468075,
      "code": "19020"
    },
    {
      "latitude": 38.77570259,
      "elevation": 582.0,
      "location": "Almad\u00e9n",
      "longitude": -4.83969634,
      "code": "13011"
    },
    {
      "latitude": 37.87353684,
      "elevation": 450.0,
      "location": "Almad\u00e9n de la Plata",
      "longitude": -6.07957572,
      "code": "41009"
    },
    {
      "latitude": 38.88984134,
      "elevation": 646.0,
      "location": "Almagro",
      "longitude": -3.71155855,
      "code": "13013"
    },
    {
      "latitude": 41.84999184,
      "elevation": 1052.0,
      "location": "Almajano",
      "longitude": -2.33881041,
      "code": "42017"
    },
    {
      "latitude": 41.28972183,
      "elevation": 821.0,
      "location": "Almaluez",
      "longitude": -2.26907314,
      "code": "42018"
    },
    {
      "latitude": 38.86968811,
      "elevation": 687.0,
      "location": "Almansa",
      "longitude": -1.09414681,
      "code": "02009"
    },
    {
      "latitude": 42.6588761,
      "elevation": 917.0,
      "location": "Almanza",
      "longitude": -5.03587274,
      "code": "24004"
    },
    {
      "latitude": 39.81453225,
      "elevation": 274.0,
      "location": "Almaraz",
      "longitude": -5.67829933,
      "code": "10019"
    },
    {
      "latitude": 41.47409994,
      "elevation": 716.0,
      "location": "Almaraz de Duero",
      "longitude": -5.91566795,
      "code": "49007"
    },
    {
      "latitude": 39.68503932,
      "elevation": 874.0,
      "location": "Almarcha, La",
      "longitude": -2.38281385,
      "code": "16015"
    },
    {
      "latitude": 37.00211364,
      "elevation": 510.0,
      "location": "Almargen",
      "longitude": -5.02113921,
      "code": "29010"
    },
    {
      "latitude": 41.94781382,
      "elevation": 1153.0,
      "location": "Almarza",
      "longitude": -2.46853304,
      "code": "42019"
    },
    {
      "latitude": 42.21595126,
      "elevation": 1061.0,
      "location": "Almarza de Cameros",
      "longitude": -2.59784925,
      "code": "26012"
    },
    {
      "latitude": 41.30538097,
      "elevation": 463.0,
      "location": "Almatret",
      "longitude": 0.42383283,
      "code": "25020"
    },
    {
      "latitude": 39.94591018,
      "elevation": 35.0,
      "location": "Almazora/Almassora",
      "longitude": -0.06448283,
      "code": "12009"
    },
    {
      "latitude": 41.57392547,
      "elevation": 980.0,
      "location": "Almazul",
      "longitude": -2.14622574,
      "code": "42021"
    },
    {
      "latitude": 41.48699422,
      "elevation": 950.0,
      "location": "Almaz\u00e1n",
      "longitude": -2.5329103,
      "code": "42020"
    },
    {
      "latitude": 38.62299905,
      "elevation": 905.0,
      "location": "Almedina",
      "longitude": -2.95590124,
      "code": "13014"
    },
    {
      "latitude": 37.43947257,
      "elevation": 620.0,
      "location": "Almedinilla",
      "longitude": -4.09001992,
      "code": "14004"
    },
    {
      "latitude": 39.87273437,
      "elevation": 404.0,
      "location": "Almed\u00edjar",
      "longitude": -0.40830291,
      "code": "12010"
    },
    {
      "latitude": 36.90261248,
      "elevation": 818.0,
      "location": "Almeg\u00edjar",
      "longitude": -3.30032661,
      "code": "18016"
    },
    {
      "latitude": 41.26621011,
      "elevation": 780.0,
      "location": "Almeida de Sayago",
      "longitude": -6.07550435,
      "code": "49008"
    },
    {
      "latitude": 41.79769309,
      "elevation": 326.0,
      "location": "Almenar",
      "longitude": 0.56808578,
      "code": "25021"
    },
    {
      "latitude": 41.68247959,
      "elevation": 1019.0,
      "location": "Almenar de Soria",
      "longitude": -2.20003672,
      "code": "42022"
    },
    {
      "latitude": 39.75325705,
      "elevation": 23.0,
      "location": "Almenara",
      "longitude": -0.22531046,
      "code": "12011"
    },
    {
      "latitude": 41.21405631,
      "elevation": 781.0,
      "location": "Almenara de Adaja",
      "longitude": -4.676157,
      "code": "47008"
    },
    {
      "latitude": 41.06319014,
      "elevation": 775.0,
      "location": "Almenara de Tormes",
      "longitude": -5.82270954,
      "code": "37027"
    },
    {
      "latitude": 41.22971069,
      "elevation": 768.0,
      "location": "Almendra",
      "longitude": -6.3407647,
      "code": "37028"
    },
    {
      "latitude": 38.61467816,
      "elevation": 320.0,
      "location": "Almendral",
      "longitude": -6.82136683,
      "code": "06010"
    },
    {
      "latitude": 40.18406426,
      "elevation": 630.0,
      "location": "Almendral de la Ca\u00f1ada",
      "longitude": -4.73971498,
      "code": "45011"
    },
    {
      "latitude": 38.68445279,
      "elevation": 337.0,
      "location": "Almendralejo",
      "longitude": -6.40778009,
      "code": "06011"
    },
    {
      "latitude": 37.50698812,
      "elevation": 231.0,
      "location": "Almendro, El",
      "longitude": -7.26999069,
      "code": "21003"
    },
    {
      "latitude": 39.92099567,
      "elevation": 869.0,
      "location": "Almendros",
      "longitude": -2.88435186,
      "code": "16016"
    },
    {
      "latitude": 37.30889164,
      "elevation": 42.0,
      "location": "Almensilla",
      "longitude": -6.11334069,
      "code": "41010"
    },
    {
      "latitude": 36.83892362,
      "elevation": 16.0,
      "location": "Almer\u00eda",
      "longitude": -2.46413188,
      "code": "04013"
    },
    {
      "latitude": 38.91635576,
      "elevation": 145.0,
      "location": "Almiser\u00e0",
      "longitude": -0.2849761,
      "code": "46033"
    },
    {
      "latitude": 41.28018845,
      "elevation": 276.0,
      "location": "Almochuel",
      "longitude": -0.54963666,
      "code": "50021"
    },
    {
      "latitude": 38.70989004,
      "elevation": 669.0,
      "location": "Almod\u00f3var del Campo",
      "longitude": -4.17902225,
      "code": "13015"
    },
    {
      "latitude": 39.72560852,
      "elevation": 994.0,
      "location": "Almod\u00f3var del Pinar",
      "longitude": -1.90192562,
      "code": "16017"
    },
    {
      "latitude": 37.80943577,
      "elevation": 119.0,
      "location": "Almod\u00f3var del R\u00edo",
      "longitude": -5.02076595,
      "code": "14005"
    },
    {
      "latitude": 40.29802922,
      "elevation": 665.0,
      "location": "Almoguera",
      "longitude": -2.98140244,
      "code": "19021"
    },
    {
      "latitude": 36.82473079,
      "elevation": 364.0,
      "location": "Almog\u00eda",
      "longitude": -4.54115435,
      "code": "29011"
    },
    {
      "latitude": 40.60510103,
      "elevation": 1201.0,
      "location": "Almohaja",
      "longitude": -1.43769514,
      "code": "44018"
    },
    {
      "latitude": 39.17658695,
      "elevation": 306.0,
      "location": "Almohar\u00edn",
      "longitude": -6.04384237,
      "code": "10020"
    },
    {
      "latitude": 38.94398885,
      "elevation": 34.0,
      "location": "Almoines",
      "longitude": -0.18134817,
      "code": "46034"
    },
    {
      "latitude": 41.55453535,
      "elevation": 488.0,
      "location": "Almolda, La",
      "longitude": -0.20971283,
      "code": "50022"
    },
    {
      "latitude": 39.75317956,
      "elevation": 713.0,
      "location": "Almonacid de Toledo",
      "longitude": -3.85489355,
      "code": "45012"
    },
    {
      "latitude": 40.33029908,
      "elevation": 683.0,
      "location": "Almonacid de Zorita",
      "longitude": -2.85268966,
      "code": "19022"
    },
    {
      "latitude": 41.28225409,
      "elevation": 497.0,
      "location": "Almonacid de la Cuba",
      "longitude": -0.79261296,
      "code": "50023"
    },
    {
      "latitude": 41.39738034,
      "elevation": 598.0,
      "location": "Almonacid de la Sierra",
      "longitude": -1.3239318,
      "code": "50024"
    },
    {
      "latitude": 39.8231081,
      "elevation": 892.0,
      "location": "Almonacid del Marquesado",
      "longitude": -2.76850729,
      "code": "16018"
    },
    {
      "latitude": 37.872631,
      "elevation": 574.0,
      "location": "Almonaster la Real",
      "longitude": -6.7872,
      "code": "21004"
    },
    {
      "latitude": 37.26252304,
      "elevation": 75.0,
      "location": "Almonte",
      "longitude": -6.51747768,
      "code": "21005"
    },
    {
      "latitude": 38.10977991,
      "elevation": 10.0,
      "location": "Almorad\u00ed",
      "longitude": -0.79201713,
      "code": "03015"
    },
    {
      "latitude": 40.23314998,
      "elevation": 535.0,
      "location": "Almorox",
      "longitude": -4.3915911,
      "code": "45013"
    },
    {
      "latitude": 41.19796946,
      "elevation": 285.0,
      "location": "Almoster",
      "longitude": 1.1140377,
      "code": "43011"
    },
    {
      "latitude": 38.76155764,
      "elevation": 570.0,
      "location": "Almudaina",
      "longitude": -0.35370678,
      "code": "03016"
    },
    {
      "latitude": 42.04438111,
      "elevation": 426.0,
      "location": "Almud\u00e9var",
      "longitude": -0.58093381,
      "code": "22021"
    },
    {
      "latitude": 41.47666813,
      "elevation": 366.0,
      "location": "Almunia de Do\u00f1a Godina, La",
      "longitude": -1.3746454,
      "code": "50025"
    },
    {
      "latitude": 41.93566184,
      "elevation": 348.0,
      "location": "Almunia de San Juan",
      "longitude": 0.2447946,
      "code": "22022"
    },
    {
      "latitude": 41.94993824,
      "elevation": 344.0,
      "location": "Almuniente",
      "longitude": -0.41021033,
      "code": "22023"
    },
    {
      "latitude": 38.5142644,
      "elevation": 802.0,
      "location": "Almuradiel",
      "longitude": -3.49679815,
      "code": "13016"
    },
    {
      "latitude": 39.29004877,
      "elevation": 10.0,
      "location": "Almussafes",
      "longitude": -0.41293657,
      "code": "46035"
    },
    {
      "latitude": 36.73441423,
      "elevation": 22.0,
      "location": "Almu\u00f1\u00e9car",
      "longitude": -3.69091622,
      "code": "18017"
    },
    {
      "latitude": 39.51227026,
      "elevation": 11.0,
      "location": "Alm\u00e0ssera",
      "longitude": -0.3557517,
      "code": "46032"
    },
    {
      "latitude": 36.80892882,
      "elevation": 228.0,
      "location": "Alm\u00e1char",
      "longitude": -4.2160806,
      "code": "29009"
    },
    {
      "latitude": 37.00274251,
      "elevation": 835.0,
      "location": "Alm\u00f3cita",
      "longitude": -2.78984397,
      "code": "04014"
    },
    {
      "latitude": 40.17841,
      "elevation": 1109.0,
      "location": "Alobras",
      "longitude": -1.38793341,
      "code": "44019"
    },
    {
      "latitude": 40.5745861,
      "elevation": 954.0,
      "location": "Aloc\u00e9n",
      "longitude": -2.7504278,
      "code": "19023"
    },
    {
      "latitude": 43.24467414,
      "elevation": 32.0,
      "location": "Alonsotegi",
      "longitude": -2.98785093,
      "code": "48912"
    },
    {
      "latitude": 37.54947646,
      "elevation": 183.0,
      "location": "Alosno",
      "longitude": -7.11496253,
      "code": "21006"
    },
    {
      "latitude": 40.59571722,
      "elevation": 644.0,
      "location": "Alovera",
      "longitude": -3.24826011,
      "code": "19024"
    },
    {
      "latitude": 36.72826442,
      "elevation": 385.0,
      "location": "Alozaina",
      "longitude": -4.85529513,
      "code": "29013"
    },
    {
      "latitude": 42.37253273,
      "elevation": 1161.0,
      "location": "Alp",
      "longitude": 1.88550982,
      "code": "17006"
    },
    {
      "latitude": 36.6337735,
      "elevation": 690.0,
      "location": "Alpandeire",
      "longitude": -5.20258909,
      "code": "29014"
    },
    {
      "latitude": 41.26399199,
      "elevation": 1111.0,
      "location": "Alpanseque",
      "longitude": -2.67075347,
      "code": "42023"
    },
    {
      "latitude": 41.42195793,
      "elevation": 497.0,
      "location": "Alpartir",
      "longitude": -1.38158786,
      "code": "50026"
    },
    {
      "latitude": 40.65875745,
      "elevation": 916.0,
      "location": "Alpedrete",
      "longitude": -4.02378568,
      "code": "28010"
    },
    {
      "latitude": 42.11918767,
      "elevation": 857.0,
      "location": "Alpens",
      "longitude": 2.10093622,
      "code": "08004"
    },
    {
      "latitude": 38.95969094,
      "elevation": 852.0,
      "location": "Alpera",
      "longitude": -1.23080245,
      "code": "02010"
    },
    {
      "latitude": 40.79870353,
      "elevation": 1225.0,
      "location": "Alpe\u00f1\u00e9s",
      "longitude": -1.06560633,
      "code": "44020"
    },
    {
      "latitude": 41.66650616,
      "elevation": 263.0,
      "location": "Alpicat",
      "longitude": 0.55526727,
      "code": "25023"
    },
    {
      "latitude": 39.87603328,
      "elevation": 973.0,
      "location": "Alpuente",
      "longitude": -1.01327721,
      "code": "46036"
    },
    {
      "latitude": 36.98251456,
      "elevation": 1213.0,
      "location": "Alpujarra de la Sierra",
      "longitude": -3.15514238,
      "code": "18904"
    },
    {
      "latitude": 38.77311802,
      "elevation": 363.0,
      "location": "Alqueria d'Asnar, l'",
      "longitude": -0.42552267,
      "code": "03017"
    },
    {
      "latitude": 38.93653868,
      "elevation": 25.0,
      "location": "Alqueria de la Comtessa, l'",
      "longitude": -0.1561269,
      "code": "46037"
    },
    {
      "latitude": 39.89489234,
      "elevation": 24.0,
      "location": "Alqueries, les/Alquer\u00edas del Ni\u00f1o Perdido",
      "longitude": -0.11078598,
      "code": "12901"
    },
    {
      "latitude": 37.17960943,
      "elevation": 1195.0,
      "location": "Alquife",
      "longitude": -3.11612282,
      "code": "18018"
    },
    {
      "latitude": 42.17235218,
      "elevation": 657.0,
      "location": "Alqu\u00e9zar",
      "longitude": 0.02773606,
      "code": "22024"
    },
    {
      "latitude": 37.00135999,
      "elevation": 309.0,
      "location": "Alsodux",
      "longitude": -2.59464638,
      "code": "04015"
    },
    {
      "latitude": 42.63436767,
      "elevation": 1084.0,
      "location": "Alt \u00c0neu",
      "longitude": 1.11090417,
      "code": "25024"
    },
    {
      "latitude": 42.60308288,
      "elevation": 715.0,
      "location": "Altable",
      "longitude": -3.07810504,
      "code": "09013"
    },
    {
      "latitude": 41.14181475,
      "elevation": 36.0,
      "location": "Altafulla",
      "longitude": 1.37651077,
      "code": "43012"
    },
    {
      "latitude": 39.91246073,
      "elevation": 883.0,
      "location": "Altarejos",
      "longitude": -2.35613584,
      "code": "16019"
    },
    {
      "latitude": 38.59892497,
      "elevation": 60.0,
      "location": "Altea",
      "longitude": -0.05144236,
      "code": "03018"
    },
    {
      "latitude": 41.80356286,
      "elevation": 263.0,
      "location": "Altorric\u00f3n",
      "longitude": 0.41430272,
      "code": "22025"
    },
    {
      "latitude": 42.80759204,
      "elevation": 1019.0,
      "location": "Altos, Los",
      "longitude": -3.63301961,
      "code": "09014"
    },
    {
      "latitude": 42.89495157,
      "elevation": 531.0,
      "location": "Altsasu/Alsasua",
      "longitude": -2.17054551,
      "code": "31010"
    },
    {
      "latitude": 39.85068214,
      "elevation": 389.0,
      "location": "Altura",
      "longitude": -0.51064045,
      "code": "12012"
    },
    {
      "latitude": 43.0642468,
      "elevation": 279.0,
      "location": "Altzaga",
      "longitude": -2.15349925,
      "code": "20906"
    },
    {
      "latitude": 43.09922008,
      "elevation": 217.0,
      "location": "Altzo",
      "longitude": -2.08335458,
      "code": "20007"
    },
    {
      "latitude": 40.61642277,
      "elevation": 1398.0,
      "location": "Alustante",
      "longitude": -1.65887289,
      "code": "19027"
    },
    {
      "latitude": 39.14944832,
      "elevation": 16.0,
      "location": "Alzira",
      "longitude": -0.43554456,
      "code": "46017"
    },
    {
      "latitude": 42.35170341,
      "elevation": 769.0,
      "location": "Al\u00e0s i Cerc",
      "longitude": 1.50844498,
      "code": "25005"
    },
    {
      "latitude": 37.87387884,
      "elevation": 573.0,
      "location": "Al\u00e1jar",
      "longitude": -6.66548899,
      "code": "21001"
    },
    {
      "latitude": 39.44932584,
      "elevation": 581.0,
      "location": "Al\u00eda",
      "longitude": -5.21711245,
      "code": "10017"
    },
    {
      "latitude": 41.91190245,
      "elevation": 292.0,
      "location": "Al\u00f2s de Balaguer",
      "longitude": 0.96103348,
      "code": "25022"
    },
    {
      "latitude": 40.57148196,
      "elevation": 1163.0,
      "location": "Amavida",
      "longitude": -5.06123239,
      "code": "05012"
    },
    {
      "latitude": 42.21161381,
      "elevation": 793.0,
      "location": "Amayuelas de Arriba",
      "longitude": -4.48934981,
      "code": "34009"
    },
    {
      "latitude": 41.79541553,
      "elevation": 587.0,
      "location": "Ambel",
      "longitude": -1.617811,
      "code": "50027"
    },
    {
      "latitude": 40.33178686,
      "elevation": 679.0,
      "location": "Ambite",
      "longitude": -3.17875526,
      "code": "28011"
    },
    {
      "latitude": 42.01007358,
      "elevation": 186.0,
      "location": "Amer",
      "longitude": 2.60180784,
      "code": "17007"
    },
    {
      "latitude": 42.86186045,
      "elevation": 36.0,
      "location": "Ames",
      "longitude": -8.64653468,
      "code": "15002"
    },
    {
      "latitude": 40.88500221,
      "elevation": 20.0,
      "location": "Ametlla de Mar, L'",
      "longitude": 0.80032416,
      "code": "43013"
    },
    {
      "latitude": 41.67042597,
      "elevation": 292.0,
      "location": "Ametlla del Vall\u00e8s, L'",
      "longitude": 2.2625552,
      "code": "08005"
    },
    {
      "latitude": 42.65622713,
      "elevation": 551.0,
      "location": "Ameyugo",
      "longitude": -3.06108867,
      "code": "09016"
    },
    {
      "latitude": 43.04428733,
      "elevation": 208.0,
      "location": "Amezketa",
      "longitude": -2.08294675,
      "code": "20008"
    },
    {
      "latitude": 43.26919915,
      "elevation": 223.0,
      "location": "Amieva",
      "longitude": -5.12832295,
      "code": "33003"
    },
    {
      "latitude": 42.41328711,
      "elevation": 431.0,
      "location": "Amoeiro",
      "longitude": -7.94839447,
      "code": "32002"
    },
    {
      "latitude": 43.21819018,
      "elevation": 64.0,
      "location": "Amorebieta-Etxano",
      "longitude": -2.73512007,
      "code": "48003"
    },
    {
      "latitude": 43.32608979,
      "elevation": 184.0,
      "location": "Amoroto",
      "longitude": -2.51299327,
      "code": "48004"
    },
    {
      "latitude": 40.81252965,
      "elevation": 10.0,
      "location": "Ampolla, L'",
      "longitude": 0.70877628,
      "code": "43906"
    },
    {
      "latitude": 40.7103883,
      "elevation": 8.0,
      "location": "Amposta",
      "longitude": 0.57831025,
      "code": "43014"
    },
    {
      "latitude": 41.91628637,
      "elevation": 790.0,
      "location": "Ampudia",
      "longitude": -4.78100575,
      "code": "34010"
    },
    {
      "latitude": 43.34347017,
      "elevation": 11.0,
      "location": "Ampuero",
      "longitude": -3.41576314,
      "code": "39002"
    },
    {
      "latitude": 43.05427776,
      "elevation": 219.0,
      "location": "Amurrio",
      "longitude": -3.00007326,
      "code": "01002"
    },
    {
      "latitude": 42.17311585,
      "elevation": 772.0,
      "location": "Amusco",
      "longitude": -4.47026072,
      "code": "34011"
    },
    {
      "latitude": 41.74858422,
      "elevation": 774.0,
      "location": "Amusquillo",
      "longitude": -4.30251896,
      "code": "47009"
    },
    {
      "latitude": 42.77454842,
      "elevation": 576.0,
      "location": "Am\u00e9scoa Baja",
      "longitude": -2.13371305,
      "code": "31013"
    },
    {
      "latitude": 40.98181711,
      "elevation": 1113.0,
      "location": "Anad\u00f3n",
      "longitude": -0.98347787,
      "code": "44024"
    },
    {
      "latitude": 40.99057435,
      "elevation": 889.0,
      "location": "Anaya",
      "longitude": -4.30828795,
      "code": "40017"
    },
    {
      "latitude": 40.72821716,
      "elevation": 878.0,
      "location": "Anaya de Alba",
      "longitude": -5.49313584,
      "code": "37029"
    },
    {
      "latitude": 40.4657949,
      "elevation": 756.0,
      "location": "Anchuelo",
      "longitude": -3.26974566,
      "code": "28012"
    },
    {
      "latitude": 39.47944668,
      "elevation": 549.0,
      "location": "Anchuras",
      "longitude": -4.83658844,
      "code": "13017"
    },
    {
      "latitude": 42.66017562,
      "elevation": 489.0,
      "location": "Anc\u00edn/Antzin",
      "longitude": -2.18719865,
      "code": "31014"
    },
    {
      "latitude": 41.59717549,
      "elevation": 693.0,
      "location": "Andav\u00edas",
      "longitude": -5.85617929,
      "code": "49009"
    },
    {
      "latitude": 39.83590084,
      "elevation": 898.0,
      "location": "Andilla",
      "longitude": -0.81348901,
      "code": "46038"
    },
    {
      "latitude": 43.21980681,
      "elevation": 69.0,
      "location": "Andoain",
      "longitude": -2.01998488,
      "code": "20009"
    },
    {
      "latitude": 40.97509431,
      "elevation": 716.0,
      "location": "Andorra",
      "longitude": -0.44371856,
      "code": "44025"
    },
    {
      "latitude": 42.3778331,
      "elevation": 316.0,
      "location": "Andosilla",
      "longitude": -1.94206689,
      "code": "31015"
    },
    {
      "latitude": 39.57698567,
      "elevation": 99.0,
      "location": "Andratx",
      "longitude": 2.42166738,
      "code": "07005"
    },
    {
      "latitude": 38.03712706,
      "elevation": 211.0,
      "location": "And\u00fajar",
      "longitude": -4.05408787,
      "code": "23005"
    },
    {
      "latitude": 41.06972963,
      "elevation": 921.0,
      "location": "Anento",
      "longitude": -1.33328459,
      "code": "50028"
    },
    {
      "latitude": 41.65892599,
      "elevation": 335.0,
      "location": "Anglesola",
      "longitude": 1.0819755,
      "code": "25027"
    },
    {
      "latitude": 41.95671537,
      "elevation": 163.0,
      "location": "Angl\u00e8s",
      "longitude": 2.63929213,
      "code": "17008"
    },
    {
      "latitude": 42.57393008,
      "elevation": 473.0,
      "location": "Anguciana",
      "longitude": -2.90017001,
      "code": "26013"
    },
    {
      "latitude": 42.2613112,
      "elevation": 661.0,
      "location": "Anguiano",
      "longitude": -2.76414946,
      "code": "26014"
    },
    {
      "latitude": 41.02574633,
      "elevation": 1120.0,
      "location": "Anguita",
      "longitude": -2.36795961,
      "code": "19032"
    },
    {
      "latitude": 41.75274276,
      "elevation": 807.0,
      "location": "Anguix",
      "longitude": -3.93108325,
      "code": "09017"
    },
    {
      "latitude": 41.06576639,
      "elevation": 996.0,
      "location": "Ang\u00f3n",
      "longitude": -2.85655197,
      "code": "19031"
    },
    {
      "latitude": 42.11133682,
      "elevation": 544.0,
      "location": "Ang\u00fc\u00e9s",
      "longitude": -0.15348143,
      "code": "22027"
    },
    {
      "latitude": 43.20234934,
      "elevation": 264.0,
      "location": "Anievas",
      "longitude": -4.00482775,
      "code": "39003"
    },
    {
      "latitude": 41.44499163,
      "elevation": 727.0,
      "location": "Ani\u00f1\u00f3n",
      "longitude": -1.70372366,
      "code": "50029"
    },
    {
      "latitude": 39.02174984,
      "elevation": 197.0,
      "location": "Anna",
      "longitude": -0.64427404,
      "code": "46039"
    },
    {
      "latitude": 43.16125092,
      "elevation": 76.0,
      "location": "Anoeta",
      "longitude": -2.07074006,
      "code": "20010"
    },
    {
      "latitude": 40.97096151,
      "elevation": 1192.0,
      "location": "Anquela del Ducado",
      "longitude": -2.12943843,
      "code": "19033"
    },
    {
      "latitude": 40.74408402,
      "elevation": 1284.0,
      "location": "Anquela del Pedregal",
      "longitude": -1.73659036,
      "code": "19034"
    },
    {
      "latitude": 42.83395631,
      "elevation": 454.0,
      "location": "Anso\u00e1in/Antsoain",
      "longitude": -1.64497536,
      "code": "31016"
    },
    {
      "latitude": 42.7546632,
      "elevation": 858.0,
      "location": "Ans\u00f3",
      "longitude": -0.82888346,
      "code": "22028"
    },
    {
      "latitude": 37.24459175,
      "elevation": 108.0,
      "location": "Antas",
      "longitude": -1.91715315,
      "code": "04016"
    },
    {
      "latitude": 42.7818095,
      "elevation": 556.0,
      "location": "Antas de Ulla",
      "longitude": -7.88938796,
      "code": "27003"
    },
    {
      "latitude": 39.07941331,
      "elevation": 42.0,
      "location": "Antella",
      "longitude": -0.59190021,
      "code": "46040"
    },
    {
      "latitude": 37.0142215,
      "elevation": 570.0,
      "location": "Antequera",
      "longitude": -4.55804451,
      "code": "29015"
    },
    {
      "latitude": 28.4216333,
      "elevation": 254.0,
      "location": "Antigua",
      "longitude": -14.01328308,
      "code": "35003"
    },
    {
      "latitude": 42.17935586,
      "elevation": 754.0,
      "location": "Antigua, La",
      "longitude": -5.68998617,
      "code": "24005"
    },
    {
      "latitude": 41.94594369,
      "elevation": 827.0,
      "location": "Antig\u00fcedad",
      "longitude": -4.11829968,
      "code": "34012"
    },
    {
      "latitude": 42.03663837,
      "elevation": 514.0,
      "location": "Antill\u00f3n",
      "longitude": -0.16479389,
      "code": "22029"
    },
    {
      "latitude": 43.09807343,
      "elevation": 236.0,
      "location": "Antzuola",
      "longitude": -2.38135844,
      "code": "20011"
    },
    {
      "latitude": 42.96274567,
      "elevation": 550.0,
      "location": "Anue",
      "longitude": -1.61706149,
      "code": "31017"
    },
    {
      "latitude": 42.78637979,
      "elevation": 508.0,
      "location": "Aoiz/Agoitz",
      "longitude": -1.37008483,
      "code": "31019"
    },
    {
      "latitude": 41.0473439,
      "elevation": 856.0,
      "location": "Arabayona de M\u00f3gica",
      "longitude": -5.38598528,
      "code": "37031"
    },
    {
      "latitude": 37.8894945,
      "elevation": 732.0,
      "location": "Aracena",
      "longitude": -6.56158282,
      "code": "21007"
    },
    {
      "latitude": 28.33856062,
      "elevation": 445.0,
      "location": "Arafo",
      "longitude": -16.41680736,
      "code": "38004"
    },
    {
      "latitude": 42.7064757,
      "elevation": 971.0,
      "location": "Arag\u00fc\u00e9s del Puerto",
      "longitude": -0.67072675,
      "code": "22032"
    },
    {
      "latitude": 37.26265472,
      "elevation": 114.0,
      "location": "Arahal",
      "longitude": -5.54476269,
      "code": "41011"
    },
    {
      "latitude": 41.13780531,
      "elevation": 1092.0,
      "location": "Arahuetes",
      "longitude": -3.85695035,
      "code": "40019"
    },
    {
      "latitude": 43.03778887,
      "elevation": 221.0,
      "location": "Araitz",
      "longitude": -1.98428356,
      "code": "31020"
    },
    {
      "latitude": 43.15402278,
      "elevation": 138.0,
      "location": "Arakaldo",
      "longitude": -2.93391223,
      "code": "48005"
    },
    {
      "latitude": 42.92596117,
      "elevation": 489.0,
      "location": "Arakil",
      "longitude": -1.84791404,
      "code": "31025"
    },
    {
      "latitude": 43.06338109,
      "elevation": 169.0,
      "location": "Arama",
      "longitude": -2.16555897,
      "code": "20012"
    },
    {
      "latitude": 43.05119653,
      "elevation": 333.0,
      "location": "Aramaio",
      "longitude": -2.56540037,
      "code": "01003"
    },
    {
      "latitude": 42.77935473,
      "elevation": 782.0,
      "location": "Aranarache/Aranaratxe",
      "longitude": -2.22892726,
      "code": "31021"
    },
    {
      "latitude": 41.79938037,
      "elevation": 1064.0,
      "location": "Aranc\u00f3n",
      "longitude": -2.28015782,
      "code": "42024"
    },
    {
      "latitude": 41.67155079,
      "elevation": 798.0,
      "location": "Aranda de Duero",
      "longitude": -3.68924298,
      "code": "09018"
    },
    {
      "latitude": 41.57856435,
      "elevation": 908.0,
      "location": "Aranda de Moncayo",
      "longitude": -1.79270089,
      "code": "50031"
    },
    {
      "latitude": 41.73768375,
      "elevation": 882.0,
      "location": "Arandilla",
      "longitude": -3.43000594,
      "code": "09019"
    },
    {
      "latitude": 40.51035241,
      "elevation": 890.0,
      "location": "Arandilla del Arroyo",
      "longitude": -2.38492574,
      "code": "16020"
    },
    {
      "latitude": 43.23503062,
      "elevation": 304.0,
      "location": "Aranga",
      "longitude": -8.01505533,
      "code": "15003"
    },
    {
      "latitude": 42.78898523,
      "elevation": 618.0,
      "location": "Aranguren",
      "longitude": -1.53544196,
      "code": "31023"
    },
    {
      "latitude": 40.03340145,
      "elevation": 495.0,
      "location": "Aranjuez",
      "longitude": -3.60279693,
      "code": "28013"
    },
    {
      "latitude": 43.19928558,
      "elevation": 443.0,
      "location": "Arano",
      "longitude": -1.89468634,
      "code": "31024"
    },